[{"name": "Yavapai Humane Society", "state": "AZ", "link": "http://www.yavapaihumane.org/", "category": "Animals", "geometry": [34.5743726, -112.4270975]}, {"name": "Humane Society of Pulaski County", "state": "AR", "link": "http://www.warmhearts.org", "category": "Animals", "geometry": [34.7116772, -92.43994359999999]}, {"name": "Tony La Russa's Animal Rescue Foundation", "state": "CA", "link": "http://www.arflife.org", "category": "Animals", "geometry": [37.93300869999999, -122.020521]}, {"name": "Humane Society of the Pikes Peak Region", "state": "CO", "link": "http://www.hsppr.org", "category": "Animals", "geometry": [38.8256369, -104.8369799]}, {"name": "Our Companions Animal Rescue", "state": "CT", "link": "http://www.ourcompanions.org", "category": "Animals", "geometry": [41.7759301, -72.52150089999999]}, {"name": "Animal Welfare Institute", "state": "DC", "link": "http://www.awionline.org", "category": "Animals", "geometry": [38.8838868, -76.9934899]}, {"name": "Peggy Adams Animal Rescue League", "state": "FL", "link": "http://www.peggyadams.org", "category": "Animals", "geometry": [26.7227438, -80.1095299]}, {"name": "Noah's Ark Animal Sanctuary", "state": "GA", "link": "http://www.noahs-ark.org/", "category": "Animals", "geometry": [33.3064511, -84.1276048]}, {"name": "Hawaiian Humane Society", "state": "HI", "link": "http://www.hawaiianhumane.org", "category": "Animals", "geometry": [21.2905058, -157.8182996]}, {"name": "Mountain Humane", "state": "ID", "link": "http://www.mountainhumane.org", "category": "Animals", "geometry": [43.5091078, -114.3379378]}, {"name": "Animal Welfare League", "state": "IL", "link": "http://www.animalwelfareleague.com", "category": "Animals", "geometry": [41.7035738, -87.78778489999999]}, {"name": "Vanderburgh Humane Society", "state": "IN", "link": "http://www.vhslifesaver.org/", "category": "Animals", "geometry": [37.99258340000001, -87.5700955]}, {"name": "Kansas Humane Society", "state": "KS", "link": "http://www.kshumane.org/", "category": "Animals", "geometry": [37.7420174, -97.3005932]}, {"name": "Kentucky Humane Society", "state": "KY", "link": "http://www.kyhumane.org", "category": "Animals", "geometry": [38.2659395, -85.6103886]}, {"name": "Animal Refuge League", "state": "ME", "link": "http://arlgp.org", "category": "Animals", "geometry": [43.6654806, -70.3479445]}, {"name": "SPCA of Anne Arundel County", "state": "MD", "link": "http://www.aacspca.org/", "category": "Animals", "geometry": [38.9561236, -76.4906479]}, {"name": "Animal Rescue League of Boston", "state": "MA", "link": "http://www.arlboston.org", "category": "Animals", "geometry": [42.3469546, -71.07006559999999]}, {"name": "Michigan Humane Society", "state": "MI", "link": "http://www.michiganhumane.org", "category": "Animals", "geometry": [42.5110865, -83.2822077]}, {"name": "Animal Humane Society", "state": "MN", "link": "http://www.animalhumanesociety.org/", "category": "Animals", "geometry": [44.9874613, -93.3295117]}, {"name": "Animal Protective Association of Missouri", "state": "MO", "link": "http://www.apamo.org", "category": "Animals", "geometry": [38.623731, -90.33595199999999]}, {"name": "Heart of the Valley Animal Shelter", "state": "MT", "link": "http://www.heartofthevalleyshelter.org/", "category": "Animals", "geometry": [45.7528333, -111.1469845]}, {"name": "Capital Humane Society", "state": "NE", "link": "http://www.capitalhumanesociety.org", "category": "Animals", "geometry": [40.7896253, -96.7148801]}, {"name": "Monadnock Humane Society", "state": "NH", "link": "http://www.monadnockhumanesociety.org", "category": "Animals", "geometry": [42.9088815, -72.3010496]}, {"name": "SAVE, A Friend to Homeless Animals", "state": "NJ", "link": "http://www.savehomelessanimals.org", "category": "Animals", "geometry": [40.4122411, -74.7048962]}, {"name": "Santa Fe Animal Shelter & Humane Society", "state": "NM", "link": "http://www.sfhumanesociety.org/", "category": "Animals", "geometry": [35.657953, -106.0646074]}, {"name": "Woodstock Farm Animal Sanctuary", "state": "NY", "link": "http://woodstocksanctuary.org/", "category": "Animals", "geometry": [41.8091924, -74.16793940000001]}, {"name": "Humane Society of Charlotte", "state": "NC", "link": "http://humanecharlotte.org/", "category": "Animals", "geometry": [35.207768, -80.8757424]}, {"name": "SPCA Cincinnati", "state": "OH", "link": "http://www.spcacincinnati.org/", "category": "Animals", "geometry": [39.1583677, -84.54531589999999]}, {"name": "Greenhill Humane Society, SPCA", "state": "OR", "link": "http://www.green-hill.org/", "category": "Animals", "geometry": [44.0641347, -123.2110629]}, {"name": "Providence Animal Center", "state": "PA", "link": "http://www.providenceac.org/", "category": "Animals", "geometry": [39.935213, -75.37962399999999]}, {"name": "Rhode Island Zoological Society", "state": "RI", "link": "https://www.rwpzoo.org/about/rhode-island-zoological-society", "category": "Animals", "geometry": [41.7839622, -71.41710239999999]}, {"name": "Greenville Humane Society", "state": "SC", "link": "http://www.greenvillehumane.com/", "category": "Animals", "geometry": [34.8446603, -82.35404700000001]}, {"name": "Humane Society of El Paso", "state": "TX", "link": "https://www.hselpaso.org/", "category": "Animals", "geometry": [31.8260048, -106.4390114]}, {"name": "Humane Society of Utah", "state": "UT", "link": "http://www.utahhumane.org/", "category": "Animals", "geometry": [40.6795232, -111.9008474]}, {"name": "Animal Welfare League of Alexandria", "state": "VA", "link": "http://www.alexandriaanimals.org", "category": "Animals", "geometry": [38.8052193, -77.1050527]}, {"name": "Whidbey Animals Improvement Foundation", "state": "WA", "link": "https://www.waifanimals.org/", "category": "Animals", "geometry": [48.2076176, -122.6545387]}, {"name": "Elmbrook Humane Society", "state": "WI", "link": "http://www.ebhs.org/", "category": "Animals", "geometry": [43.05302349999999, -88.17354519999999]}, {"name": "United Methodist Children's Home", "state": "AL", "link": "http://www.umch.net", "category": "Black Lives Matter", "geometry": [32.3620991, -86.2646233]}, {"name": "Catholic Education Arizona", "state": "AZ", "link": "https://catholiceducationarizona.org/", "category": "Black Lives Matter", "geometry": [33.51608, -112.0469384]}, {"name": "United Way of Fort Smith Area", "state": "AR", "link": "https://unitedwayfortsmith.org/", "category": "Black Lives Matter", "geometry": [35.3842203, -94.4172559]}, {"name": "United Way of Santa Barbara County", "state": "CA", "link": "http://www.unitedwaysb.org/", "category": "Black Lives Matter", "geometry": [34.4194413, -119.6899138]}, {"name": "FORGE", "state": "CO", "link": "http://forgeforward.org/", "category": "Black Lives Matter", "geometry": [39.6797638, -104.819844]}, {"name": "ECAD, Educated Canines Assisting with Disabilities", "state": "CT", "link": "http://www.ecad1.org", "category": "Black Lives Matter", "geometry": [41.8003049, -73.1211715]}, {"name": "Animal Welfare Institute", "state": "DC", "link": "http://www.awionline.org", "category": "Black Lives Matter", "geometry": [38.8838868, -76.9934899]}, {"name": "United Way Emerald Coast", "state": "FL", "link": "http://united-way.org/", "category": "Black Lives Matter", "geometry": [30.407629, -86.6057862]}, {"name": "Gwinnett County Habitat for Humanity Inc", "state": "GA", "link": "http://www.habitatgwinnett.org", "category": "Black Lives Matter", "geometry": [33.9562149, -83.9879625]}, {"name": "Mountain Humane", "state": "ID", "link": "http://www.mountainhumane.org", "category": "Black Lives Matter", "geometry": [43.5091078, -114.3379378]}, {"name": "Cancer Wellness Center", "state": "IL", "link": "http://www.cancerwellness.org", "category": "Black Lives Matter", "geometry": [42.1486898, -87.8028059]}, {"name": "United Way of Madison County, Indiana", "state": "IN", "link": "http://www.unitedwaymadisonco.org/", "category": "Black Lives Matter", "geometry": [40.1053196, -85.6802541]}, {"name": "Cedar Valley United Way", "state": "IA", "link": "http://www.cedarvalleyunitedway.org/", "category": "Black Lives Matter", "geometry": [42.4968029, -92.34025179999999]}, {"name": "Salina Area United Way", "state": "KS", "link": "http://www.unitedwaysalina.org/", "category": "Black Lives Matter", "geometry": [38.8381093, -97.6072878]}, {"name": "United Way of the Bluegrass", "state": "KY", "link": "http://www.uwbg.org/", "category": "Black Lives Matter", "geometry": [38.0411783, -84.48866679999999]}, {"name": "Capital Area United Way, Louisiana", "state": "LA", "link": "http://www.cauw.org", "category": "Black Lives Matter", "geometry": [30.4503268, -91.18317660000001]}, {"name": "United Way of Greater Portland", "state": "ME", "link": "http://www.unitedwaygp.org/", "category": "Black Lives Matter", "geometry": [43.6567352, -70.25511879999999]}, {"name": "Ronald McDonald House Charities of Baltimore", "state": "MD", "link": "https://rmhcbaltimore.org/", "category": "Black Lives Matter", "geometry": [39.2911125, -76.6255453]}, {"name": "International OCD Foundation", "state": "MA", "link": "http://iocdf.org/", "category": "Black Lives Matter", "geometry": [42.3587826, -71.05962459999999]}, {"name": "Hope Clinic", "state": "MI", "link": "http://thehopeclinic.org/", "category": "Black Lives Matter", "geometry": [42.2340114, -83.61879619999999]}, {"name": "Los Cabos Children's Foundation", "state": "MN", "link": "http://www.loscaboschildren.org/", "category": "Black Lives Matter", "geometry": [44.7921231, -93.18224149999999]}, {"name": "United Way of South Mississippi", "state": "MS", "link": "http://www.unitedwaysm.org", "category": "Black Lives Matter", "geometry": [30.4335597, -89.0344349]}, {"name": "Lives Under Construction Boys Ranch", "state": "MO", "link": "http://www.lucboys.org/", "category": "Black Lives Matter", "geometry": [36.5207117, -93.503019]}, {"name": "Heart of the Valley Animal Shelter", "state": "MT", "link": "http://www.heartofthevalleyshelter.org/", "category": "Black Lives Matter", "geometry": [45.7528333, -111.1469845]}, {"name": "Heartland United Way", "state": "NE", "link": "http://www.heartlandunitedway.org/", "category": "Black Lives Matter", "geometry": [40.93367, -98.3774948]}, {"name": "Spread the Word Nevada", "state": "NV", "link": "http://spreadthewordnevada.org/", "category": "Black Lives Matter", "geometry": [36.0412932, -115.0329757]}, {"name": "Girls Inc. of New Hampshire", "state": "NH", "link": "http://www.girlsincnewhampshire.org/", "category": "Black Lives Matter", "geometry": [42.7506334, -71.4524776]}, {"name": "United Way of Central Jersey", "state": "NJ", "link": "http://www.uwcj.org/", "category": "Black Lives Matter", "geometry": [40.4505984, -74.4390195]}, {"name": "Animal Humane New Mexico", "state": "NM", "link": "http://www.animalhumanenm.org", "category": "Black Lives Matter", "geometry": [35.0672294, -106.5535733]}, {"name": "United Way of Westchester and Putnam", "state": "NY", "link": "http://www.uwwp.org/", "category": "Black Lives Matter", "geometry": [41.0284478, -73.7897732]}, {"name": "Speedway Children's Charities", "state": "NC", "link": "http://www.speedwaycharities.org", "category": "Black Lives Matter", "geometry": [35.3515472, -80.6865507]}, {"name": "Northlands Rescue Mission", "state": "ND", "link": "https://northlandsrescuemission.org/", "category": "Black Lives Matter", "geometry": [47.9218613, -97.02841319999999]}, {"name": "United Way of Greater Cleveland", "state": "OH", "link": "http://www.unitedwaycleveland.org", "category": "Black Lives Matter", "geometry": [41.5012406, -81.6823015]}, {"name": "Tulsa Habitat for Humanity Inc", "state": "OK", "link": "http://www.tulsahabitat.org/", "category": "Black Lives Matter", "geometry": [36.1445817, -95.9077901]}, {"name": "Dogs for Better Lives", "state": "OR", "link": "https://dogsforbetterlives.org/", "category": "Black Lives Matter", "geometry": [42.4618567, -122.9399109]}, {"name": "United Way of Lackawanna and Wayne Counties", "state": "PA", "link": "http://www.uwlc.net/", "category": "Black Lives Matter", "geometry": [41.41163969999999, -75.65596719999999]}, {"name": "Jewish Alliance of Greater Rhode Island", "state": "RI", "link": "http://www.jewishallianceri.org/", "category": "Black Lives Matter", "geometry": [41.841993, -71.3923609]}, {"name": "United Way of Aiken County", "state": "SC", "link": "http://www.uwaiken.org/", "category": "Black Lives Matter", "geometry": [33.5632062, -81.7211688]}, {"name": "Native American Heritage Association", "state": "SD", "link": "http://www.naha-inc.org", "category": "Black Lives Matter", "geometry": [44.1973716, -103.3430659]}, {"name": "United Way of Blount County", "state": "TN", "link": "http://www.liveunitedblount.org", "category": "Black Lives Matter", "geometry": [35.77199969999999, -83.9577267]}, {"name": "United Way of Denton County", "state": "TX", "link": "http://www.unitedwaydenton.org/", "category": "Black Lives Matter", "geometry": [33.2009958, -97.1223521]}, {"name": "Crossroads Urban Center", "state": "UT", "link": "https://www.crossroadsurbancenter.org/", "category": "Black Lives Matter", "geometry": [40.7615774, -111.8792392]}, {"name": "United Way of Roanoke Valley", "state": "VA", "link": "http://www.uwrv.org/", "category": "Black Lives Matter", "geometry": [37.271701, -79.946737]}, {"name": "Imagine Children's Museum", "state": "WA", "link": "http://www.imaginecm.org/", "category": "Black Lives Matter", "geometry": [47.9775102, -122.2096167]}, {"name": "Rawhide", "state": "WI", "link": "http://www.rawhide.org", "category": "Black Lives Matter", "geometry": [44.3098219, -88.853787]}, {"name": "Jackson Hole Conservation Alliance", "state": "WY", "link": "http://www.jhalliance.org/", "category": "Black Lives Matter", "geometry": [43.4719603, -110.7625561]}, {"name": "Christian Family Care", "state": "AZ", "link": "http://www.cfcare.org/", "category": "COVID-19 Relief", "geometry": [33.4897472, -112.0828012]}, {"name": "MEND - Meet Each Need with Dignity", "state": "CA", "link": "http://www.mendpoverty.org/", "category": "COVID-19 Relief", "geometry": [34.26308470000001, -118.4195049]}, {"name": "Weld Food Bank", "state": "CO", "link": "http://www.weldfoodbank.org/", "category": "COVID-19 Relief", "geometry": [40.443663, -104.698779]}, {"name": "Catholic Charities, Diocese of Norwich", "state": "CT", "link": "http://www.ccfsn.org", "category": "COVID-19 Relief", "geometry": [41.524004, -72.0717684]}, {"name": "Judeo Christian Health Clinic", "state": "FL", "link": "http://www.judeochristianhealthclinic.org/", "category": "COVID-19 Relief", "geometry": [27.9769685, -82.4942052]}, {"name": "Cancer Wellness Center", "state": "IL", "link": "http://www.cancerwellness.org", "category": "COVID-19 Relief", "geometry": [42.1486898, -87.8028059]}, {"name": "The Mind Trust", "state": "IN", "link": "http://www.themindtrust.org/", "category": "COVID-19 Relief", "geometry": [39.7891943, -86.1578724]}, {"name": "Food Bank of Siouxland", "state": "IA", "link": "http://foodbanksiouxland.wordpress.com/", "category": "COVID-19 Relief", "geometry": [42.5025003, -96.3929297]}, {"name": "Kansas Food Bank", "state": "KS", "link": "http://www.kansasfoodbank.org/", "category": "COVID-19 Relief", "geometry": [37.6856716, -97.3143615]}, {"name": "Bottom Line", "state": "MA", "link": "http://www.bottomline.org/", "category": "COVID-19 Relief", "geometry": [42.3569814, -71.0576224]}, {"name": "Big Brothers Big Sisters of Metropolitan Detroit", "state": "MI", "link": "http://www.bbbsdetroit.org", "category": "COVID-19 Relief", "geometry": [42.3727232, -83.0781222]}, {"name": "United Way of the Lewis and Clark Area", "state": "MT", "link": "http://www.unitedwaylca.org/", "category": "COVID-19 Relief", "geometry": [46.597955, -112.02963]}, {"name": "New York City Relief/The Relief Bus", "state": "NJ", "link": "http://newyorkcityrelief.org/", "category": "COVID-19 Relief", "geometry": [40.6687557, -74.21293419999999]}, {"name": "NDI New Mexico", "state": "NM", "link": "http://www.ndi-nm.org", "category": "COVID-19 Relief", "geometry": [35.6832065, -105.9655057]}, {"name": "enCourage Kids Foundation", "state": "NY", "link": "http://encourage-kids.org/", "category": "COVID-19 Relief", "geometry": [40.758755, -73.9845905]}, {"name": "Junior Achievement of Central Carolinas", "state": "NC", "link": "https://www.juniorachievement.org/web/ja-carolinas", "category": "COVID-19 Relief", "geometry": [35.245438, -80.832093]}, {"name": "Northlands Rescue Mission", "state": "ND", "link": "https://northlandsrescuemission.org/", "category": "COVID-19 Relief", "geometry": [47.9218613, -97.02841319999999]}, {"name": "House of Bread", "state": "OH", "link": "http://houseofbread.org/", "category": "COVID-19 Relief", "geometry": [39.7599049, -84.20964219999999]}, {"name": "Children's Hospital Foundation", "state": "OK", "link": "http://www.chfKids.com", "category": "COVID-19 Relief", "geometry": [35.4766576, -97.50382820000002]}, {"name": "Water Street Ministries", "state": "PA", "link": "http://wsm.org/", "category": "COVID-19 Relief", "geometry": [40.0340117, -76.3073258]}, {"name": "Grapevine Relief And Community Exchange", "state": "TX", "link": "http://gracegrapevine.org", "category": "COVID-19 Relief", "geometry": [32.9473842, -97.08228439999999]}, {"name": "Blue Ridge Area Food Bank", "state": "VA", "link": "http://www.brafb.org", "category": "COVID-19 Relief", "geometry": [38.1996485, -79.0050802]}, {"name": "Harvest Against Hunger", "state": "WA", "link": "http://www.harvestagainsthunger.org/", "category": "COVID-19 Relief", "geometry": [47.5920467, -122.3348063]}, {"name": "Rodeheaver Boys Ranch", "state": "FL", "link": "http://www.rbr.org/", "category": "Disability", "geometry": [29.5404512, -81.7116896]}, {"name": "Chicago Legal Clinic", "state": "IL", "link": "http://www.clclaw.org/", "category": "Disability", "geometry": [41.7304152, -87.552358]}, {"name": "The Center for Courageous Kids", "state": "KY", "link": "http://www.courageouskids.org/", "category": "Disability", "geometry": [36.7731928, -86.2235244]}, {"name": "Jewish Family Service of Greater New Orleans", "state": "LA", "link": "http://www.jfsneworleans.org/", "category": "Disability", "geometry": [30.0137921, -90.156594]}, {"name": "Pine Tree Society", "state": "ME", "link": "http://www.pinetreesociety.org/", "category": "Disability", "geometry": [43.9144612, -69.8140009]}, {"name": "Jewish Federation of Somerset, Hunterdon & Warren Counties", "state": "NJ", "link": "http://www.jfedshaw.org", "category": "Disability", "geometry": [40.6124409, -74.63049]}, {"name": "Independent Catholic Foundation for the Diocese of Altoona-Johnstown", "state": "PA", "link": "http://independentcatholicfoundation.org/", "category": "Disability", "geometry": [40.4890279, -78.4129323]}, {"name": "Camp John Marc", "state": "TX", "link": "http://www.campjohnmarc.org/", "category": "Disability", "geometry": [32.8028128, -96.80382230000001]}, {"name": "SIGN Fracture Care International", "state": "WA", "link": "http://signfracturecare.org/", "category": "Disability", "geometry": [46.3381124, -119.2714142]}, {"name": "Rodeheaver Boys Ranch", "state": "FL", "link": "http://www.rbr.org/", "category": "Disability", "geometry": [29.5404512, -81.7116896]}, {"name": "Chicago Legal Clinic", "state": "IL", "link": "http://www.clclaw.org/", "category": "Disability", "geometry": [41.7304152, -87.552358]}, {"name": "The Center for Courageous Kids", "state": "KY", "link": "http://www.courageouskids.org/", "category": "Disability", "geometry": [36.7731928, -86.2235244]}, {"name": "Jewish Family Service of Greater New Orleans", "state": "LA", "link": "http://www.jfsneworleans.org/", "category": "Disability", "geometry": [30.0137921, -90.156594]}, {"name": "Pine Tree Society", "state": "ME", "link": "http://www.pinetreesociety.org/", "category": "Disability", "geometry": [43.9144612, -69.8140009]}, {"name": "Jewish Federation of Somerset, Hunterdon & Warren Counties", "state": "NJ", "link": "http://www.jfedshaw.org", "category": "Disability", "geometry": [40.6124409, -74.63049]}, {"name": "Independent Catholic Foundation for the Diocese of Altoona-Johnstown", "state": "PA", "link": "http://independentcatholicfoundation.org/", "category": "Disability", "geometry": [40.4890279, -78.4129323]}, {"name": "Camp John Marc", "state": "TX", "link": "http://www.campjohnmarc.org/", "category": "Disability", "geometry": [32.8028128, -96.80382230000001]}, {"name": "SIGN Fracture Care International", "state": "WA", "link": "http://signfracturecare.org/", "category": "Disability", "geometry": [46.3381124, -119.2714142]}, {"name": "Trustees for Alaska", "state": "AK", "link": "http://www.trustees.org/", "category": "Environment", "geometry": [61.21841119999999, -149.9029121]}, {"name": "Grand Canyon Trust", "state": "AZ", "link": "http://www.grandcanyontrust.org", "category": "Environment", "geometry": [35.2267116, -111.6593185]}, {"name": "Union Rescue Mission, Little Rock", "state": "AR", "link": "http://www.urmissionlr.org/", "category": "Environment", "geometry": [34.7196682, -92.258712]}, {"name": "Environmental Defense Center", "state": "CA", "link": "http://www.environmentaldefensecenter.org/", "category": "Environment", "geometry": [34.42415769999999, -119.6972294]}, {"name": "YMCA of the Rockies", "state": "CO", "link": "http://www.ymcarockies.org", "category": "Environment", "geometry": [40.33980469999999, -105.5735431]}, {"name": "Connecticut Audubon Society", "state": "CT", "link": "http://www.ctaudubon.org", "category": "Environment", "geometry": [41.1452627, -73.2589388]}, {"name": "The SEED Foundation", "state": "DC", "link": "http://www.seedfoundation.com/", "category": "Environment", "geometry": [38.9058785, -77.0394804]}, {"name": "Conservancy of Southwest Florida", "state": "FL", "link": "http://www.conservancy.org", "category": "Environment", "geometry": [26.1660788, -81.787246]}, {"name": "Georgia Conservancy", "state": "GA", "link": "http://www.georgiaconservancy.org", "category": "Environment", "geometry": [33.7600779, -84.3878652]}, {"name": "Save-A-Pet Adoption Center", "state": "IL", "link": "http://www.saveapetil.org", "category": "Environment", "geometry": [42.3230824, -88.1124346]}, {"name": "Vanderburgh Humane Society", "state": "IN", "link": "http://www.vhslifesaver.org/", "category": "Environment", "geometry": [37.99258340000001, -87.5700955]}, {"name": "Camp Courageous of Iowa", "state": "IA", "link": "http://www.campcourageous.org/", "category": "Environment", "geometry": [42.208049, -91.108418]}, {"name": "Kentucky Coalition", "state": "KY", "link": "http://www.kftc.org/KCDonation", "category": "Environment", "geometry": [37.0824781, -84.13269179999999]}, {"name": "Jewish Family Service of Greater New Orleans", "state": "LA", "link": "http://www.jfsneworleans.org/", "category": "Environment", "geometry": [30.0137921, -90.156594]}, {"name": "Nantucket Community Sailing", "state": "MA", "link": "http://nantucketcommunitysailing.org/", "category": "Environment", "geometry": [41.282471, -70.10234489999999]}, {"name": "Michigan Environmental Council", "state": "MI", "link": "http://www.environmentalcouncil.org/", "category": "Environment", "geometry": [42.73634850000001, -84.5603403]}, {"name": "American Youth Foundation", "state": "MO", "link": "http://www.ayf.com/", "category": "Environment", "geometry": [38.6340826, -90.3084452]}, {"name": "DISCOVERY Children's Museum", "state": "NV", "link": "https://www.discoverykidslv.org/", "category": "Environment", "geometry": [36.1687046, -115.1525552]}, {"name": "Girls Inc. of New Hampshire", "state": "NH", "link": "http://www.girlsincnewhampshire.org/", "category": "Environment", "geometry": [42.7506334, -71.4524776]}, {"name": "Great Swamp Watershed Association", "state": "NJ", "link": "http://www.greatswamp.org/", "category": "Environment", "geometry": [40.757239, -74.5383867]}, {"name": "Greater Albuquerque Habitat for Humanity", "state": "NM", "link": "http://habitatabq.org/", "category": "Environment", "geometry": [35.1084372, -106.5892536]}, {"name": "Environmental Advocates of New York", "state": "NY", "link": "http://www.eany.org/", "category": "Environment", "geometry": [42.652246, -73.7648392]}, {"name": "Appalachian Voices", "state": "NC", "link": "http://www.appvoices.org/", "category": "Environment", "geometry": [36.217989, -81.6833068]}, {"name": "Northlands Rescue Mission", "state": "ND", "link": "https://northlandsrescuemission.org/", "category": "Environment", "geometry": [47.9218613, -97.02841319999999]}, {"name": "ArtsWave", "state": "OH", "link": "https://www.artswave.org/", "category": "Environment", "geometry": [39.1077076, -84.5135756]}, {"name": "Little Light House", "state": "OK", "link": "http://www.littlelighthouse.org/", "category": "Environment", "geometry": [36.1103674, -95.9205815]}, {"name": "Western Environmental Law Center", "state": "OR", "link": "http://www.westernlaw.org", "category": "Environment", "geometry": [44.0558957, -123.0939073]}, {"name": "Rhode Island Zoological Society", "state": "RI", "link": "https://www.rwpzoo.org/about/rhode-island-zoological-society", "category": "Environment", "geometry": [41.7839622, -71.41710239999999]}, {"name": "Ronald McDonald House Charities of Charleston", "state": "SC", "link": "http://www.rmhcharleston.org/", "category": "Environment", "geometry": [32.7823739, -79.9470316]}, {"name": "American Eagle Foundation", "state": "TN", "link": "http://www.eagles.org/", "category": "Environment", "geometry": [35.7883788, -83.56142129999999]}, {"name": "EarthShare Texas", "state": "TX", "link": "http://www.earthshare-texas.org/", "category": "Environment", "geometry": [30.3702187, -97.7344078]}, {"name": "The Christmas Box International", "state": "UT", "link": "https://www.thechristmasboxhouse.org", "category": "Environment", "geometry": [40.6913364, -111.8943215]}, {"name": "Vermont Institute of Natural Science", "state": "VT", "link": "http://www.vinsweb.org/", "category": "Environment", "geometry": [43.646227, -72.4186105]}, {"name": "Southern Environmental Law Center", "state": "VA", "link": "http://www.southernenvironment.org/", "category": "Environment", "geometry": [38.0307918, -78.4803003]}, {"name": "IslandWood", "state": "WA", "link": "http://islandwood.org/", "category": "Environment", "geometry": [47.6051414, -122.5328157]}, {"name": "Riveredge Nature Center", "state": "WI", "link": "http://riveredgenaturecenter.org/", "category": "Environment", "geometry": [43.4391393, -88.0236469]}, {"name": "United Way of Baldwin County", "state": "AL", "link": "http://www.unitedway-bc.org/", "category": "Health", "geometry": [30.4128311, -87.6833453]}, {"name": "Alaska Conservation Foundation", "state": "AK", "link": "http://alaskaconservation.org/", "category": "Health", "geometry": [61.2138036, -149.907044]}, {"name": "Ronald McDonald House Charities of Southern Arizona", "state": "AZ", "link": "https://rmhctucson.org/", "category": "Health", "geometry": [32.2761738, -110.9401885]}, {"name": "Humane Society of Pulaski County", "state": "AR", "link": "http://www.warmhearts.org", "category": "Health", "geometry": [34.7116772, -92.43994359999999]}, {"name": "Breathe California of Los Angeles County", "state": "CA", "link": "http://www.breathela.org", "category": "Health", "geometry": [34.0622108, -118.3564049]}, {"name": "Can Do Multiple Sclerosis", "state": "CO", "link": "http://www.cando-ms.org", "category": "Health", "geometry": [39.635214, -106.5239441]}, {"name": "The Greenwich United Way", "state": "CT", "link": "http://www.greenwichunitedway.org", "category": "Health", "geometry": [41.0179263, -73.64525069999999]}, {"name": "The SEED Foundation", "state": "DC", "link": "http://www.seedfoundation.com/", "category": "Health", "geometry": [38.9058785, -77.0394804]}, {"name": "Judeo Christian Health Clinic", "state": "FL", "link": "http://www.judeochristianhealthclinic.org/", "category": "Health", "geometry": [27.9769685, -82.4942052]}, {"name": "United Way of the CSRA", "state": "GA", "link": "http://www.uwcsra.org/", "category": "Health", "geometry": [33.4846823, -81.9930856]}, {"name": "Hawaiian Humane Society", "state": "HI", "link": "http://www.hawaiianhumane.org", "category": "Health", "geometry": [21.2905058, -157.8182996]}, {"name": "United Way of Treasure Valley", "state": "ID", "link": "http://www.unitedwaytv.org/", "category": "Health", "geometry": [43.5737709, -116.2136124]}, {"name": "Respiratory Health Association", "state": "IL", "link": "http://www.resphealth.org/", "category": "Health", "geometry": [41.8831677, -87.6635845]}, {"name": "United Way of Madison County, Indiana", "state": "IN", "link": "http://www.unitedwaymadisonco.org/", "category": "Health", "geometry": [40.1053196, -85.6802541]}, {"name": "United Way of Siouxland", "state": "IA", "link": "http://www.unitedwaysiouxland.com/", "category": "Health", "geometry": [42.4978446, -96.3892937]}, {"name": "Special Olympics Kansas", "state": "KS", "link": "http://www.ksso.org", "category": "Health", "geometry": [39.0334899, -94.6666726]}, {"name": "Kentucky Coalition", "state": "KY", "link": "http://www.kftc.org/KCDonation", "category": "Health", "geometry": [37.0824781, -84.13269179999999]}, {"name": "United Way of Northwest Louisiana", "state": "LA", "link": "http://www.unitedwaynwla.org/", "category": "Health", "geometry": [32.4991767, -93.7475654]}, {"name": "Vision New England", "state": "ME", "link": "http://www.visionnewengland.org/", "category": "Health", "geometry": [43.4135767, -70.75164749999999]}, {"name": "The Children's Inn at NIH", "state": "MD", "link": "http://www.childrensinn.org/", "category": "Health", "geometry": [39.0045991, -77.10527739999999]}, {"name": "Jewish Family Service of Metrowest", "state": "MA", "link": "http://jfsmw.org/", "category": "Health", "geometry": [42.2894542, -71.4279419]}, {"name": "Ecology Center", "state": "MI", "link": "http://www.ecocenter.org", "category": "Health", "geometry": [42.279577, -83.74446770000002]}, {"name": "United Way of Washington County East", "state": "MN", "link": "http://www.uwwce.org/", "category": "Health", "geometry": [45.0396663, -92.83075079999999]}, {"name": "Mississippi Children's Museum", "state": "MS", "link": "http://mschildrensmuseum.org/", "category": "Health", "geometry": [32.3287444, -90.15726939999999]}, {"name": "Thrive St. Louis", "state": "MO", "link": "http://thrivealivestl.org/", "category": "Health", "geometry": [38.6415501, -90.251635]}, {"name": "United Way of the Lewis and Clark Area", "state": "MT", "link": "http://www.unitedwaylca.org/", "category": "Health", "geometry": [46.597955, -112.02963]}, {"name": "United Way of Lincoln and Lancaster County", "state": "NE", "link": "http://www.unitedwaylincoln.org/", "category": "Health", "geometry": [40.8116264, -96.7023897]}, {"name": "Ronald McDonald House Charities of Greater Las Vegas", "state": "NV", "link": "http://www.rmhlv.com/", "category": "Health", "geometry": [36.1464569, -115.2142502]}, {"name": "Girls Inc. of New Hampshire", "state": "NH", "link": "http://www.girlsincnewhampshire.org/", "category": "Health", "geometry": [42.7506334, -71.4524776]}, {"name": "United Way of Essex and West Hudson", "state": "NJ", "link": "http://www.uwewh.org/", "category": "Health", "geometry": [40.7382754, -74.1689062]}, {"name": "Animal Humane New Mexico", "state": "NM", "link": "http://www.animalhumanenm.org", "category": "Health", "geometry": [35.0672294, -106.5535733]}, {"name": "Children's Aid", "state": "NY", "link": "https://www.childrensaidnyc.org/", "category": "Health", "geometry": [40.75224860000001, -73.9729531]}, {"name": "United Way of Greater Greensboro", "state": "NC", "link": "http://www.unitedwaygso.org/", "category": "Health", "geometry": [36.0936183, -79.77937089999999]}, {"name": "United Way of Greater Cleveland", "state": "OH", "link": "http://www.unitedwaycleveland.org", "category": "Health", "geometry": [41.5012406, -81.6823015]}, {"name": "Children's Hospital Foundation", "state": "OK", "link": "http://www.chfKids.com", "category": "Health", "geometry": [35.4766576, -97.50382820000002]}, {"name": "Volunteers In Medicine Clinic, Oregon", "state": "OR", "link": "http://www.vim-clinic.org", "category": "Health", "geometry": [44.0646958, -122.9925139]}, {"name": "United Way of Chester County", "state": "PA", "link": "http://www.liveunitedchestercounty.org/", "category": "Health", "geometry": [40.0230727, -75.6533116]}, {"name": "Volunteers in Medicine Clinic Hilton Head Island", "state": "SC", "link": "http://www.vimclinic.org", "category": "Health", "geometry": [32.2176996, -80.7065725]}, {"name": "United Way of Blount County", "state": "TN", "link": "http://www.liveunitedblount.org", "category": "Health", "geometry": [35.77199969999999, -83.9577267]}, {"name": "Bo's Place", "state": "TX", "link": "http://www.bosplace.org/", "category": "Health", "geometry": [29.672954, -95.4251711]}, {"name": "Voices for Utah Children", "state": "UT", "link": "http://www.utahchildren.org/", "category": "Health", "geometry": [40.7696952, -111.8693119]}, {"name": "Southern Environmental Law Center", "state": "VA", "link": "http://www.southernenvironment.org/", "category": "Health", "geometry": [38.0307918, -78.4803003]}, {"name": "United Way of Whatcom County", "state": "WA", "link": "http://www.unitedwaywhatcom.org", "category": "Health", "geometry": [48.7517891, -122.4755884]}, {"name": "Rawhide", "state": "WI", "link": "http://www.rawhide.org", "category": "Health", "geometry": [44.3098219, -88.853787]}, {"name": "Humane Society of Pulaski County", "state": "AR", "link": "http://www.warmhearts.org", "category": "Housing & Homelessness", "geometry": [34.7116772, -92.43994359999999]}, {"name": "Orange County United Way", "state": "CA", "link": "http://www.unitedwayoc.org", "category": "Housing & Homelessness", "geometry": [33.6914688, -117.8629653]}, {"name": "Middlesex United Way", "state": "CT", "link": "http://www.middlesexunitedway.org/", "category": "Housing & Homelessness", "geometry": [41.5604553, -72.6489682]}, {"name": "Dc Habitat for Humanity Inc", "state": "DC", "link": "http://www.dchabitat.org", "category": "Housing & Homelessness", "geometry": [38.9067455, -77.0474734]}, {"name": "Habitat for Humanity In Seminole County Florida Inc", "state": "FL", "link": "http://habitatseminoleapopka.org/", "category": "Housing & Homelessness", "geometry": [28.6828978, -81.3341184]}, {"name": "Atlanta Mission", "state": "GA", "link": "https://atlantamission.org/", "category": "Housing & Homelessness", "geometry": [33.819775, -84.4605002]}, {"name": "Chicago Coalition for the Homeless", "state": "IL", "link": "http://www.chicagohomeless.org", "category": "Housing & Homelessness", "geometry": [41.8859336, -87.6255305]}, {"name": "Habitat for Humanity of Monroe County Inc", "state": "IN", "link": "http://www.monroecountyhabitat.org", "category": "Housing & Homelessness", "geometry": [39.1667997, -86.5315653]}, {"name": "Habitat for Humanity of Greater Baton Rouge Inc", "state": "LA", "link": "http://www.habitatbr.org", "category": "Housing & Homelessness", "geometry": [30.4506587, -91.1230899]}, {"name": "Animal Welfare Society", "state": "ME", "link": "https://animalwelfaresociety.org/", "category": "Housing & Homelessness", "geometry": [43.4073111, -70.58628139999999]}, {"name": "Operation Second Chance", "state": "MD", "link": "http://www.operationsecondchance.org/index", "category": "Housing & Homelessness", "geometry": [39.188709, -77.26054069999999]}, {"name": "Abby's House", "state": "MA", "link": "http://www.abbyshouse.org/", "category": "Housing & Homelessness", "geometry": [42.26121939999999, -71.80492199999999]}, {"name": "Greater Ottawa County United Way", "state": "MI", "link": "http://www.ottawaunitedway.org", "category": "Housing & Homelessness", "geometry": [42.79359059999999, -86.08267579999999]}, {"name": "Bridging", "state": "MN", "link": "http://www.bridging.org", "category": "Housing & Homelessness", "geometry": [44.8457981, -93.2829634]}, {"name": "Mississippi Children's Museum", "state": "MS", "link": "http://mschildrensmuseum.org/", "category": "Housing & Homelessness", "geometry": [32.3287444, -90.15726939999999]}, {"name": "Ronald McDonald House Charities of Greater Las Vegas", "state": "NV", "link": "http://www.rmhlv.com/", "category": "Housing & Homelessness", "geometry": [36.1464569, -115.2142502]}, {"name": "Atlantic City Rescue Mission", "state": "NJ", "link": "http://www.acrescuemission.org/", "category": "Housing & Homelessness", "geometry": [39.3650061, -74.4400141]}, {"name": "Habitat for Humanity of Greater Newburgh Inc", "state": "NY", "link": "http://habitatnewburgh.org/", "category": "Housing & Homelessness", "geometry": [41.49827, -74.0127065]}, {"name": "Raleigh Rescue Mission", "state": "NC", "link": "http://www.raleighrescue.org/", "category": "Housing & Homelessness", "geometry": [35.7778233, -78.6342883]}, {"name": "United Way of Union County", "state": "OH", "link": "http://www.unitedwayofunioncounty.org", "category": "Housing & Homelessness", "geometry": [40.227151, -83.34727]}, {"name": "Tulsa Habitat for Humanity Inc", "state": "OK", "link": "http://www.tulsahabitat.org/", "category": "Housing & Homelessness", "geometry": [36.1445817, -95.9077901]}, {"name": "Jon Bon Jovi Soul Foundation", "state": "PA", "link": "http://www.jbjsf.org ", "category": "Housing & Homelessness", "geometry": [39.9525474, -75.1673521]}, {"name": "Interfaith Family Services", "state": "TX", "link": "http://www.interfaithdallas.org", "category": "Housing & Homelessness", "geometry": [32.810892, -96.76923939999999]}, {"name": "Habitat for Humanity of Northern Virginia Inc", "state": "VA", "link": "http://www.habitatnova.org/", "category": "Housing & Homelessness", "geometry": [38.8021931, -77.1424045]}, {"name": "Habitat for Humanity of East Jefferson County", "state": "WA", "link": "http://www.habitatejc.org/", "category": "Housing & Homelessness", "geometry": [48.1030224, -122.7993264]}, {"name": "Middleton Outreach Ministry", "state": "WI", "link": "http://www.momhelps.org/", "category": "Housing & Homelessness", "geometry": [43.1129306, -89.5116643]}, {"name": "Chicago Legal Clinic", "state": "IL", "link": "http://www.clclaw.org/", "category": "Immigration", "geometry": [41.7304152, -87.552358]}, {"name": "Immigrant Legal Advocacy Project", "state": "ME", "link": "http://www.ilapmaine.org", "category": "Immigration", "geometry": [43.6568173, -70.2603191]}, {"name": "New England Historic Genealogical Society and American Ancestors", "state": "MA", "link": "http://www.americanancestors.org/index.aspx", "category": "Immigration", "geometry": [42.35171099999999, -71.075319]}, {"name": "Hawk Mountain Sanctuary", "state": "PA", "link": "http://www.hawkmountain.org/", "category": "Immigration", "geometry": [40.6349348, -75.9869638]}, {"name": "RAICES", "state": "TX", "link": "https://www.raicestexas.org/", "category": "Immigration", "geometry": [29.4381605, -98.50321890000001]}, {"name": "Downtown Rescue Mission", "state": "AL", "link": "http://www.downtownrescuemission.org", "category": "Refugee Crisis", "geometry": [34.7397698, -86.6405078]}, {"name": "Christian Family Care", "state": "AZ", "link": "http://www.cfcare.org/", "category": "Refugee Crisis", "geometry": [33.4897472, -112.0828012]}, {"name": "Rescue Mission Alliance", "state": "CA", "link": "http://www.erescuemission.org/", "category": "Refugee Crisis", "geometry": [34.2054534, -119.1788112]}, {"name": "The Wild Animal Sanctuary", "state": "CO", "link": "http://wildanimalsanctuary.org", "category": "Refugee Crisis", "geometry": [40.0286106, -104.5653689]}, {"name": "Washington Area Women's Foundation", "state": "DC", "link": "http://www.thewomensfoundation.org", "category": "Refugee Crisis", "geometry": [38.9003812, -77.03097749999999]}, {"name": "Children in Crisis", "state": "FL", "link": "http://www.childrenincrisisfl.org/", "category": "Refugee Crisis", "geometry": [30.4479255, -86.64737699999999]}, {"name": "Atlanta Mission", "state": "GA", "link": "https://atlantamission.org/", "category": "Refugee Crisis", "geometry": [33.819775, -84.4605002]}, {"name": "Jewish United Fund of Chicago", "state": "IL", "link": "http://www.juf.org", "category": "Refugee Crisis", "geometry": [41.8810088, -87.63424189999999]}, {"name": "Catholic Charities, Inc. - Diocese of Wichita ", "state": "KS", "link": "http://catholicdioceseofwichita.org/catholic-charities", "category": "Refugee Crisis", "geometry": [37.7485205, -97.334189]}, {"name": "Animal Refuge League", "state": "ME", "link": "http://arlgp.org", "category": "Refugee Crisis", "geometry": [43.6654806, -70.3479445]}, {"name": "Montgomery County Humane Society", "state": "MD", "link": "http://mchumane.org", "category": "Refugee Crisis", "geometry": [39.0827018, -77.1436179]}, {"name": "Women's Lunch Place", "state": "MA", "link": "http://www.womenslunchplace.org/", "category": "Refugee Crisis", "geometry": [42.3521496, -71.07396539999999]}, {"name": "Michigan Anti-Cruelty Society", "state": "MI", "link": "http://www.macsshelter.org/", "category": "Refugee Crisis", "geometry": [42.4148507, -83.0703229]}, {"name": "Valley Outreach", "state": "MN", "link": "http://valleyoutreachmn.org", "category": "Refugee Crisis", "geometry": [45.0397447, -92.83134539999999]}, {"name": "French Camp Academy", "state": "MS", "link": "http://www.frenchcamp.org", "category": "Refugee Crisis", "geometry": [33.289875, -89.40029]}, {"name": "Greater Yellowstone Coalition", "state": "MT", "link": "http://www.greateryellowstone.org/", "category": "Refugee Crisis", "geometry": [45.6765834, -111.0290121]}, {"name": "Ronald McDonald House Charities in Omaha", "state": "NE", "link": "http://www.rmhcomaha.org/", "category": "Refugee Crisis", "geometry": [41.2539542, -95.97090349999999]}, {"name": "Greater Albuquerque Habitat for Humanity", "state": "NM", "link": "http://habitatabq.org/", "category": "Refugee Crisis", "geometry": [35.1084372, -106.5892536]}, {"name": "New York Adult & Teen Challenge", "state": "NY", "link": "http://litcny.org/", "category": "Refugee Crisis", "geometry": [40.7114431, -73.3456781]}, {"name": "Crossnore School", "state": "NC", "link": "http://www.crossnoreschool.org", "category": "Refugee Crisis", "geometry": [36.0224548, -81.9302289]}, {"name": "Northlands Rescue Mission", "state": "ND", "link": "https://northlandsrescuemission.org/", "category": "Refugee Crisis", "geometry": [47.9218613, -97.02841319999999]}, {"name": "SPCA Cincinnati", "state": "OH", "link": "http://www.spcacincinnati.org/", "category": "Refugee Crisis", "geometry": [39.1583677, -84.54531589999999]}, {"name": "Ronald McDonald House Charities of Oklahoma City", "state": "OK", "link": "http://www.rmhcokc.org/", "category": "Refugee Crisis", "geometry": [35.48439550000001, -97.4887553]}, {"name": "South Hills Interfaith Movement", "state": "PA", "link": "http://shimcares.org/", "category": "Refugee Crisis", "geometry": [40.3284421, -80.02866209999999]}, {"name": "Pendleton Place", "state": "SC", "link": "http://www.pendletonplace.org/", "category": "Refugee Crisis", "geometry": [34.8445554, -82.4218288]}, {"name": "The Elephant Sanctuary", "state": "TN", "link": "http://www.elephants.com/", "category": "Refugee Crisis", "geometry": [35.5481644, -87.5514443]}, {"name": "RAICES", "state": "TX", "link": "https://www.raicestexas.org/", "category": "Refugee Crisis", "geometry": [29.4381605, -98.50321890000001]}, {"name": "Animal Welfare League of Arlington", "state": "VA", "link": "https://www.awla.org", "category": "Refugee Crisis", "geometry": [38.8432378, -77.0932289]}, {"name": "Vanessa Behan Crisis Nursery", "state": "WA", "link": "http://www.vanessabehan.org/", "category": "Refugee Crisis", "geometry": [47.656593, -117.3772551]}, {"name": "Chestnut Mountain Ranch", "state": "WV", "link": "https://cmrwv.org/", "category": "Refugee Crisis", "geometry": [39.5732295, -79.9123378]}, {"name": "Dane County Humane Society", "state": "WI", "link": "http://www.giveshelter.org/", "category": "Refugee Crisis", "geometry": [43.043175, -89.2923644]}, {"name": "Downtown Rescue Mission", "state": "AL", "link": "http://www.downtownrescuemission.org", "category": "Voting Rights", "geometry": [34.7397698, -86.6405078]}, {"name": "Christian Family Care", "state": "AZ", "link": "http://www.cfcare.org/", "category": "Voting Rights", "geometry": [33.4897472, -112.0828012]}, {"name": "Union Rescue Mission, Little Rock", "state": "AR", "link": "http://www.urmissionlr.org/", "category": "Voting Rights", "geometry": [34.7196682, -92.258712]}, {"name": "Children of the Night", "state": "CA", "link": "https://www.childrenofthenight.org", "category": "Voting Rights", "geometry": [34.132701, -118.354121]}, {"name": "Bright by Text", "state": "CO", "link": "http://brightbytext.org/", "category": "Voting Rights", "geometry": [39.7392358, -104.990251]}, {"name": "The Hole in the Wall Gang Fund", "state": "CT", "link": "http://www.holeinthewallgang.org", "category": "Voting Rights", "geometry": [41.2976754, -72.9122326]}, {"name": "Sunday Breakfast Mission", "state": "DE", "link": "http://www.sundaybreakfastmission.org/", "category": "Voting Rights", "geometry": [39.7368206, -75.5480896]}, {"name": "D.C. Bar Pro Bono Center", "state": "DC", "link": "http://www.dcbar.org/pro-bono/index.cfm", "category": "Voting Rights", "geometry": [38.9015139, -77.01598609999999]}, {"name": "Children in Crisis", "state": "FL", "link": "http://www.childrenincrisisfl.org/", "category": "Voting Rights", "geometry": [30.4479255, -86.64737699999999]}, {"name": "Southern Center for Human Rights", "state": "GA", "link": "http://www.schr.org", "category": "Voting Rights", "geometry": [33.7561442, -84.39084369999999]}, {"name": "Chicago Lights", "state": "IL", "link": "http://www.chicagolights.org", "category": "Voting Rights", "geometry": [41.8987638, -87.62522589999999]}, {"name": "Lake Area United Way", "state": "IN", "link": "http://www.lauw.org/", "category": "Voting Rights", "geometry": [41.5509026, -87.4293883]}, {"name": "Food Bank of Siouxland", "state": "IA", "link": "http://foodbanksiouxland.wordpress.com/", "category": "Voting Rights", "geometry": [42.5025003, -96.3929297]}, {"name": "Salina Rescue Mission", "state": "KS", "link": "http://www.salinarescuemission.com", "category": "Voting Rights", "geometry": [38.786474, -97.633804]}, {"name": "Visually Impaired Preschool Services (VIPS)", "state": "KY", "link": "http://www.vips.org", "category": "Voting Rights", "geometry": [38.2003197, -85.68385599999999]}, {"name": "United Way of Northwest Louisiana", "state": "LA", "link": "http://www.unitedwaynwla.org/", "category": "Voting Rights", "geometry": [32.4991767, -93.7475654]}, {"name": "Immigrant Legal Advocacy Project", "state": "ME", "link": "http://www.ilapmaine.org", "category": "Voting Rights", "geometry": [43.6568173, -70.2603191]}, {"name": "Helping Up Mission", "state": "MD", "link": "http://www.helpingupmission.org/", "category": "Voting Rights", "geometry": [39.2904906, -76.6021198]}, {"name": "International OCD Foundation", "state": "MA", "link": "http://iocdf.org/", "category": "Voting Rights", "geometry": [42.3587826, -71.05962459999999]}, {"name": "Grace Centers of Hope", "state": "MI", "link": "http://www.gracecentersofhope.org", "category": "Voting Rights", "geometry": [42.6394955, -83.29109419999999]}, {"name": "Angel Foundation", "state": "MN", "link": "https://mnangel.org/", "category": "Voting Rights", "geometry": [44.8816505, -93.150125]}, {"name": "Fight Colorectal Cancer", "state": "MO", "link": "http://fightcolorectalcancer.org/", "category": "Voting Rights", "geometry": [37.2087536, -93.2929881]}, {"name": "United Way of Lincoln and Lancaster County", "state": "NE", "link": "http://www.unitedwaylincoln.org/", "category": "Voting Rights", "geometry": [40.8116264, -96.7023897]}, {"name": "Ronald McDonald House Charities of Greater Las Vegas", "state": "NV", "link": "http://www.rmhlv.com/", "category": "Voting Rights", "geometry": [36.1464569, -115.2142502]}, {"name": "New Hampshire Association for the Blind", "state": "NH", "link": "http://www.sightcenter.org/", "category": "Voting Rights", "geometry": [43.214996, -71.5466624]}, {"name": "Boy Scouts of America, Northern New Jersey Council", "state": "NJ", "link": "http://nnjbsa.org", "category": "Voting Rights", "geometry": [41.0138048, -74.26479119999999]}, {"name": "Animal Humane New Mexico", "state": "NM", "link": "http://www.animalhumanenm.org", "category": "Voting Rights", "geometry": [35.0672294, -106.5535733]}, {"name": "Hoving Home", "state": "NY", "link": "http://www.hovinghome.org", "category": "Voting Rights", "geometry": [41.387545, -73.930071]}, {"name": "North Carolina Zoological Society", "state": "NC", "link": "http://www.nczoo.com", "category": "Voting Rights", "geometry": [35.634204, -79.782461]}, {"name": "The New Path", "state": "OH", "link": "http://newpathserves.org", "category": "Voting Rights", "geometry": [39.9274671, -84.19725129999999]}, {"name": "Little Light House", "state": "OK", "link": "http://www.littlelighthouse.org/", "category": "Voting Rights", "geometry": [36.1103674, -95.9205815]}, {"name": "Oregon Lions Sight & Hearing Foundation", "state": "OR", "link": "http://www.olshf.org/", "category": "Voting Rights", "geometry": [45.5301268, -122.6963914]}, {"name": "Animal Friends", "state": "PA", "link": "http://www.thinkingoutsidethecage.org/", "category": "Voting Rights", "geometry": [40.4397841, -79.8846286]}, {"name": "Center for Developmental Services", "state": "SC", "link": "http://www.cdservices.org/", "category": "Voting Rights", "geometry": [34.8530307, -82.4020472]}, {"name": "Crazy Horse Memorial Foundation", "state": "SD", "link": "https://crazyhorsememorial.org/", "category": "Voting Rights", "geometry": [43.8280823, -103.6316836]}, {"name": "J103", "state": "TN", "link": "http://www.j103.com/", "category": "Voting Rights", "geometry": [35.0482318, -85.16579899999999]}, {"name": "Ronald McDonald House of Dallas", "state": "TX", "link": "http://www.rmhdallas.org/", "category": "Voting Rights", "geometry": [32.8105081, -96.8301199]}, {"name": "The Christmas Box International", "state": "UT", "link": "https://www.thechristmasboxhouse.org", "category": "Voting Rights", "geometry": [40.6913364, -111.8943215]}, {"name": "Museum of the Shenandoah Valley", "state": "VA", "link": "https://www.themsv.org/", "category": "Voting Rights", "geometry": [39.1853793, -78.1798668]}, {"name": "Purrfect Pals", "state": "WA", "link": "http://purrfectpals.org", "category": "Voting Rights", "geometry": [48.1422389, -122.228005]}, {"name": "Ronald McDonald House Charities of Eastern Wisconsin", "state": "WI", "link": "http://rmhc-easternwi.org", "category": "Voting Rights", "geometry": [43.0458737, -88.02489369999999]}, {"name": "United Way of Natrona County", "state": "WY", "link": "http://www.unitedwaync.com/", "category": "Voting Rights", "geometry": [42.8533611, -106.3354798]}]