[{"name": "Yavapai Humane Society", "state": "AZ", "link": "http://www.yavapaihumane.org/", "category": "Animals", "geometry": [34.5743726, -112.4270975]}, {"name": "Humane Society of Pulaski County", "state": "AR", "link": "http://www.warmhearts.org", "category": "Animals", "geometry": [34.7116772, -92.43994359999999]}, {"name": "Tony La Russa's Animal Rescue Foundation", "state": "CA", "link": "http://www.arflife.org", "category": "Animals", "geometry": [37.93300869999999, -122.020521]}, {"name": "Humane Society of the Pikes Peak Region", "state": "CO", "link": "http://www.hsppr.org", "category": "Animals", "geometry": [38.8256369, -104.8369799]}, {"name": "Our Companions Animal Rescue", "state": "CT", "link": "http://www.ourcompanions.org", "category": "Animals", "geometry": [41.7759301, -72.52150089999999]}, {"name": "Animal Welfare Institute", "state": "DC", "link": "http://www.awionline.org", "category": "Animals", "geometry": [38.8838868, -76.9934899]}, {"name": "Peggy Adams Animal Rescue League", "state": "FL", "link": "http://www.peggyadams.org", "category": "Animals", "geometry": [26.7227438, -80.1095299]}, {"name": "Noah's Ark Animal Sanctuary", "state": "GA", "link": "http://www.noahs-ark.org/", "category": "Animals", "geometry": [33.3064511, -84.1276048]}, {"name": "Hawaiian Humane Society", "state": "HI", "link": "http://www.hawaiianhumane.org", "category": "Animals", "geometry": [21.2905058, -157.8182996]}, {"name": "Mountain Humane", "state": "ID", "link": "http://www.mountainhumane.org", "category": "Animals", "geometry": [43.5091078, -114.3379378]}, {"name": "Animal Welfare League", "state": "IL", "link": "http://www.animalwelfareleague.com", "category": "Animals", "geometry": [41.7035738, -87.78778489999999]}, {"name": "Vanderburgh Humane Society", "state": "IN", "link": "http://www.vhslifesaver.org/", "category": "Animals", "geometry": [37.99258340000001, -87.5700955]}, {"name": "Kansas Humane Society", "state": "KS", "link": "http://www.kshumane.org/", "category": "Animals", "geometry": [37.7420174, -97.3005932]}, {"name": "Kentucky Humane Society", "state": "KY", "link": "http://www.kyhumane.org", "category": "Animals", "geometry": [38.2659395, -85.6103886]}, {"name": "Animal Refuge League", "state": "ME", "link": "http://arlgp.org", "category": "Animals", "geometry": [43.6654806, -70.3479445]}, {"name": "SPCA of Anne Arundel County", "state": "MD", "link": "http://www.aacspca.org/", "category": "Animals", "geometry": [38.9561236, -76.4906479]}, {"name": "Animal Rescue League of Boston", "state": "MA", "link": "http://www.arlboston.org", "category": "Animals", "geometry": [42.3469546, -71.07006559999999]}, {"name": "Michigan Humane Society", "state": "MI", "link": "http://www.michiganhumane.org", "category": "Animals", "geometry": [42.5110865, -83.2822077]}, {"name": "Animal Humane Society", "state": "MN", "link": "http://www.animalhumanesociety.org/", "category": "Animals", "geometry": [44.9874613, -93.3295117]}, {"name": "Animal Protective Association of Missouri", "state": "MO", "link": "http://www.apamo.org", "category": "Animals", "geometry": [38.623731, -90.33595199999999]}, {"name": "Heart of the Valley Animal Shelter", "state": "MT", "link": "http://www.heartofthevalleyshelter.org/", "category": "Animals", "geometry": [45.7528333, -111.1469845]}, {"name": "Capital Humane Society", "state": "NE", "link": "http://www.capitalhumanesociety.org", "category": "Animals", "geometry": [40.7896253, -96.7148801]}, {"name": "Monadnock Humane Society", "state": "NH", "link": "http://www.monadnockhumanesociety.org", "category": "Animals", "geometry": [42.9088815, -72.3010496]}, {"name": "SAVE, A Friend to Homeless Animals", "state": "NJ", "link": "http://www.savehomelessanimals.org", "category": "Animals", "geometry": [40.4122411, -74.7048962]}, {"name": "Santa Fe Animal Shelter & Humane Society", "state": "NM", "link": "http://www.sfhumanesociety.org/", "category": "Animals", "geometry": [35.657953, -106.0646074]}, {"name": "Woodstock Farm Animal Sanctuary", "state": "NY", "link": "http://woodstocksanctuary.org/", "category": "Animals", "geometry": [41.8091924, -74.16793940000001]}, {"name": "Humane Society of Charlotte", "state": "NC", "link": "http://humanecharlotte.org/", "category": "Animals", "geometry": [35.207768, -80.8757424]}, {"name": "SPCA Cincinnati", "state": "OH", "link": "http://www.spcacincinnati.org/", "category": "Animals", "geometry": [39.1583677, -84.54531589999999]}, {"name": "Greenhill Humane Society, SPCA", "state": "OR", "link": "http://www.green-hill.org/", "category": "Animals", "geometry": [44.0641347, -123.2110629]}, {"name": "Providence Animal Center", "state": "PA", "link": "http://www.providenceac.org/", "category": "Animals", "geometry": [39.935213, -75.37962399999999]}, {"name": "Rhode Island Zoological Society", "state": "RI", "link": "https://www.rwpzoo.org/about/rhode-island-zoological-society", "category": "Animals", "geometry": [41.7839622, -71.41710239999999]}, {"name": "Greenville Humane Society", "state": "SC", "link": "http://www.greenvillehumane.com/", "category": "Animals", "geometry": [34.8446603, -82.35404700000001]}, {"name": "Humane Society of El Paso", "state": "TX", "link": "https://www.hselpaso.org/", "category": "Animals", "geometry": [31.8260048, -106.4390114]}, {"name": "Humane Society of Utah", "state": "UT", "link": "http://www.utahhumane.org/", "category": "Animals", "geometry": [40.6795232, -111.9008474]}, {"name": "Animal Welfare League of Alexandria", "state": "VA", "link": "http://www.alexandriaanimals.org", "category": "Animals", "geometry": [38.8052193, -77.1050527]}, {"name": "Whidbey Animals Improvement Foundation", "state": "WA", "link": "https://www.waifanimals.org/", "category": "Animals", "geometry": [48.2076176, -122.6545387]}, {"name": "Elmbrook Humane Society", "state": "WI", "link": "http://www.ebhs.org/", "category": "Animals", "geometry": [43.05302349999999, -88.17354519999999]}]