[{"name": "Yavapai Humane Society", "state": "AZ", "link": "http://www.yavapaihumane.org/", "category": "Animals", "geometry": [34.5743726, -112.4270975]}, {"name": "Humane Society of Pulaski County", "state": "AR", "link": "http://www.warmhearts.org", "category": "Animals", "geometry": [34.7116772, -92.43994359999999]}, {"name": "Tony La Russa's Animal Rescue Foundation", "state": "CA", "link": "http://www.arflife.org", "category": "Animals", "geometry": [37.93300869999999, -122.020521]}, {"name": "Humane Society of the Pikes Peak Region", "state": "CO", "link": "http://www.hsppr.org", "category": "Animals", "geometry": [38.8256369, -104.8369799]}, {"name": "Our Companions Animal Rescue", "state": "CT", "link": "http://www.ourcompanions.org", "category": "Animals", "geometry": [41.7759301, -72.52150089999999]}, {"name": "Animal Welfare Institute", "state": "DC", "link": "http://www.awionline.org", "category": "Animals", "geometry": [38.8838868, -76.9934899]}, {"name": "Peggy Adams Animal Rescue League", "state": "FL", "link": "http://www.peggyadams.org", "category": "Animals", "geometry": [26.7227438, -80.1095299]}, {"name": "Noah's Ark Animal Sanctuary", "state": "GA", "link": "http://www.noahs-ark.org/", "category": "Animals", "geometry": [33.3064511, -84.1276048]}, {"name": "Hawaiian Humane Society", "state": "HI", "link": "http://www.hawaiianhumane.org", "category": "Animals", "geometry": [21.2905058, -157.8182996]}, {"name": "Mountain Humane", "state": "ID", "link": "http://www.mountainhumane.org", "category": "Animals", "geometry": [43.5091078, -114.3379378]}, {"name": "Animal Welfare League", "state": "IL", "link": "http://www.animalwelfareleague.com", "category": "Animals", "geometry": [41.7035738, -87.78778489999999]}, {"name": "Vanderburgh Humane Society", "state": "IN", "link": "http://www.vhslifesaver.org/", "category": "Animals", "geometry": [37.99258340000001, -87.5700955]}, {"name": "Kansas Humane Society", "state": "KS", "link": "http://www.kshumane.org/", "category": "Animals", "geometry": [37.7420174, -97.3005932]}, {"name": "Kentucky Humane Society", "state": "KY", "link": "http://www.kyhumane.org", "category": "Animals", "geometry": [38.2659395, -85.6103886]}, {"name": "Animal Refuge League", "state": "ME", "link": "http://arlgp.org", "category": "Animals", "geometry": [43.6654806, -70.3479445]}, {"name": "SPCA of Anne Arundel County", "state": "MD", "link": "http://www.aacspca.org/", "category": "Animals", "geometry": [38.9561236, -76.4906479]}, {"name": "Animal Rescue League of Boston", "state": "MA", "link": "http://www.arlboston.org", "category": "Animals", "geometry": [42.3469546, -71.07006559999999]}, {"name": "Michigan Humane Society", "state": "MI", "link": "http://www.michiganhumane.org", "category": "Animals", "geometry": [42.5110865, -83.2822077]}, {"name": "Animal Humane Society", "state": "MN", "link": "http://www.animalhumanesociety.org/", "category": "Animals", "geometry": [44.9874613, -93.3295117]}, {"name": "Animal Protective Association of Missouri", "state": "MO", "link": "http://www.apamo.org", "category": "Animals", "geometry": [38.623731, -90.33595199999999]}, {"name": "Heart of the Valley Animal Shelter", "state": "MT", "link": "http://www.heartofthevalleyshelter.org/", "category": "Animals", "geometry": [45.7528333, -111.1469845]}, {"name": "Capital Humane Society", "state": "NE", "link": "http://www.capitalhumanesociety.org", "category": "Animals", "geometry": [40.7896253, -96.7148801]}, {"name": "Monadnock Humane Society", "state": "NH", "link": "http://www.monadnockhumanesociety.org", "category": "Animals", "geometry": [42.9088815, -72.3010496]}, {"name": "SAVE, A Friend to Homeless Animals", "state": "NJ", "link": "http://www.savehomelessanimals.org", "category": "Animals", "geometry": [40.4122411, -74.7048962]}, {"name": "Santa Fe Animal Shelter & Humane Society", "state": "NM", "link": "http://www.sfhumanesociety.org/", "category": "Animals", "geometry": [35.657953, -106.0646074]}, {"name": "Woodstock Farm Animal Sanctuary", "state": "NY", "link": "http://woodstocksanctuary.org/", "category": "Animals", "geometry": [41.8091924, -74.16793940000001]}, {"name": "Humane Society of Charlotte", "state": "NC", "link": "http://humanecharlotte.org/", "category": "Animals", "geometry": [35.207768, -80.8757424]}, {"name": "SPCA Cincinnati", "state": "OH", "link": "http://www.spcacincinnati.org/", "category": "Animals", "geometry": [39.1583677, -84.54531589999999]}, {"name": "Greenhill Humane Society, SPCA", "state": "OR", "link": "http://www.green-hill.org/", "category": "Animals", "geometry": [44.0641347, -123.2110629]}, {"name": "Providence Animal Center", "state": "PA", "link": "http://www.providenceac.org/", "category": "Animals", "geometry": [39.935213, -75.37962399999999]}, {"name": "Rhode Island Zoological Society", "state": "RI", "link": "https://www.rwpzoo.org/about/rhode-island-zoological-society", "category": "Animals", "geometry": [41.7839622, -71.41710239999999]}, {"name": "Greenville Humane Society", "state": "SC", "link": "http://www.greenvillehumane.com/", "category": "Animals", "geometry": [34.8446603, -82.35404700000001]}, {"name": "Humane Society of El Paso", "state": "TX", "link": "https://www.hselpaso.org/", "category": "Animals", "geometry": [31.8260048, -106.4390114]}, {"name": "Humane Society of Utah", "state": "UT", "link": "http://www.utahhumane.org/", "category": "Animals", "geometry": [40.6795232, -111.9008474]}, {"name": "Animal Welfare League of Alexandria", "state": "VA", "link": "http://www.alexandriaanimals.org", "category": "Animals", "geometry": [38.8052193, -77.1050527]}, {"name": "Whidbey Animals Improvement Foundation", "state": "WA", "link": "https://www.waifanimals.org/", "category": "Animals", "geometry": [48.2076176, -122.6545387]}, {"name": "Elmbrook Humane Society", "state": "WI", "link": "http://www.ebhs.org/", "category": "Animals", "geometry": [43.05302349999999, -88.17354519999999]}, {"name": "Trustees for Alaska", "state": "AK", "link": "http://www.trustees.org/", "category": "Environment", "geometry": [61.21841119999999, -149.9029121]}, {"name": "Grand Canyon Trust", "state": "AZ", "link": "http://www.grandcanyontrust.org", "category": "Environment", "geometry": [35.2267116, -111.6593185]}, {"name": "Union Rescue Mission, Little Rock", "state": "AR", "link": "http://www.urmissionlr.org/", "category": "Environment", "geometry": [34.7196682, -92.258712]}, {"name": "Environmental Defense Center", "state": "CA", "link": "http://www.environmentaldefensecenter.org/", "category": "Environment", "geometry": [34.42415769999999, -119.6972294]}, {"name": "YMCA of the Rockies", "state": "CO", "link": "http://www.ymcarockies.org", "category": "Environment", "geometry": [40.33980469999999, -105.5735431]}, {"name": "Connecticut Audubon Society", "state": "CT", "link": "http://www.ctaudubon.org", "category": "Environment", "geometry": [41.1452627, -73.2589388]}, {"name": "The SEED Foundation", "state": "DC", "link": "http://www.seedfoundation.com/", "category": "Environment", "geometry": [38.9058785, -77.0394804]}, {"name": "Conservancy of Southwest Florida", "state": "FL", "link": "http://www.conservancy.org", "category": "Environment", "geometry": [26.1660788, -81.787246]}, {"name": "Georgia Conservancy", "state": "GA", "link": "http://www.georgiaconservancy.org", "category": "Environment", "geometry": [33.7600779, -84.3878652]}, {"name": "Misericordia", "state": "IL", "link": "http://www.misericordia.com", "category": "Environment", "geometry": [41.9961762, -87.6779624]}, {"name": "Vanderburgh Humane Society", "state": "IN", "link": "http://www.vhslifesaver.org/", "category": "Environment", "geometry": [37.99258340000001, -87.5700955]}, {"name": "Camp Courageous of Iowa", "state": "IA", "link": "http://www.campcourageous.org/", "category": "Environment", "geometry": [42.208049, -91.108418]}, {"name": "Kentucky Coalition", "state": "KY", "link": "http://www.kftc.org/KCDonation", "category": "Environment", "geometry": [37.0824781, -84.13269179999999]}, {"name": "Jewish Family Service of Greater New Orleans", "state": "LA", "link": "http://www.jfsneworleans.org/", "category": "Environment", "geometry": [30.0137921, -90.156594]}, {"name": "Nantucket Community Sailing", "state": "MA", "link": "http://nantucketcommunitysailing.org/", "category": "Environment", "geometry": [41.282471, -70.10234489999999]}, {"name": "Michigan Environmental Council", "state": "MI", "link": "http://www.environmentalcouncil.org/", "category": "Environment", "geometry": [42.73634850000001, -84.5603403]}, {"name": "American Youth Foundation", "state": "MO", "link": "http://www.ayf.com/", "category": "Environment", "geometry": [38.6340826, -90.3084452]}, {"name": "DISCOVERY Children's Museum", "state": "NV", "link": "https://www.discoverykidslv.org/", "category": "Environment", "geometry": [36.1687046, -115.1525552]}, {"name": "Girls Inc. of New Hampshire", "state": "NH", "link": "http://www.girlsincnewhampshire.org/", "category": "Environment", "geometry": [42.7506334, -71.4524776]}, {"name": "Great Swamp Watershed Association", "state": "NJ", "link": "http://www.greatswamp.org/", "category": "Environment", "geometry": [40.757239, -74.5383867]}, {"name": "Greater Albuquerque Habitat for Humanity", "state": "NM", "link": "http://habitatabq.org/", "category": "Environment", "geometry": [35.1084372, -106.5892536]}, {"name": "Environmental Advocates of New York", "state": "NY", "link": "http://www.eany.org/", "category": "Environment", "geometry": [42.652246, -73.7648392]}, {"name": "Appalachian Voices", "state": "NC", "link": "http://www.appvoices.org/", "category": "Environment", "geometry": [36.217989, -81.6833068]}, {"name": "Northlands Rescue Mission", "state": "ND", "link": "https://northlandsrescuemission.org/", "category": "Environment", "geometry": [47.9218613, -97.02841319999999]}, {"name": "ArtsWave", "state": "OH", "link": "https://www.artswave.org/", "category": "Environment", "geometry": [39.1077076, -84.5135756]}, {"name": "Little Light House", "state": "OK", "link": "http://www.littlelighthouse.org/", "category": "Environment", "geometry": [36.1103674, -95.9205815]}, {"name": "Western Environmental Law Center", "state": "OR", "link": "http://www.westernlaw.org", "category": "Environment", "geometry": [44.0558957, -123.0939073]}, {"name": "Rhode Island Zoological Society", "state": "RI", "link": "https://www.rwpzoo.org/about/rhode-island-zoological-society", "category": "Environment", "geometry": [41.7839622, -71.41710239999999]}, {"name": "Ronald McDonald House Charities of Charleston", "state": "SC", "link": "http://www.rmhcharleston.org/", "category": "Environment", "geometry": [32.7823739, -79.9470316]}, {"name": "American Eagle Foundation", "state": "TN", "link": "http://www.eagles.org/", "category": "Environment", "geometry": [35.7883788, -83.56142129999999]}, {"name": "EarthShare Texas", "state": "TX", "link": "http://www.earthshare-texas.org/", "category": "Environment", "geometry": [30.3702187, -97.7344078]}, {"name": "The Christmas Box International", "state": "UT", "link": "https://www.thechristmasboxhouse.org", "category": "Environment", "geometry": [40.6913364, -111.8943215]}, {"name": "Vermont Institute of Natural Science", "state": "VT", "link": "http://www.vinsweb.org/", "category": "Environment", "geometry": [43.646227, -72.4186105]}, {"name": "Southern Environmental Law Center", "state": "VA", "link": "http://www.southernenvironment.org/", "category": "Environment", "geometry": [38.0307918, -78.4803003]}, {"name": "IslandWood", "state": "WA", "link": "http://islandwood.org/", "category": "Environment", "geometry": [47.6051414, -122.5328157]}, {"name": "Riveredge Nature Center", "state": "WI", "link": "http://riveredgenaturecenter.org/", "category": "Environment", "geometry": [43.4391393, -88.0236469]}, {"name": "United Methodist Children's Home", "state": "AL", "link": "http://www.umch.net", "category": "Black Lives Matter", "geometry": [32.3620991, -86.2646233]}, {"name": "Catholic Education Arizona", "state": "AZ", "link": "https://catholiceducationarizona.org/", "category": "Black Lives Matter", "geometry": [33.51608, -112.0469384]}, {"name": "United Way of Fort Smith Area", "state": "AR", "link": "https://unitedwayfortsmith.org/", "category": "Black Lives Matter", "geometry": [35.3842203, -94.4172559]}, {"name": "United Way of Santa Barbara County", "state": "CA", "link": "http://www.unitedwaysb.org/", "category": "Black Lives Matter", "geometry": [34.4194413, -119.6899138]}, {"name": "FORGE", "state": "CO", "link": "http://forgeforward.org/", "category": "Black Lives Matter", "geometry": [39.6797638, -104.819844]}, {"name": "ECAD, Educated Canines Assisting with Disabilities", "state": "CT", "link": "http://www.ecad1.org", "category": "Black Lives Matter", "geometry": [41.8003049, -73.1211715]}, {"name": "Animal Welfare Institute", "state": "DC", "link": "http://www.awionline.org", "category": "Black Lives Matter", "geometry": [38.8838868, -76.9934899]}, {"name": "United Way Emerald Coast", "state": "FL", "link": "http://united-way.org/", "category": "Black Lives Matter", "geometry": [30.407629, -86.6057862]}, {"name": "Gwinnett County Habitat for Humanity Inc", "state": "GA", "link": "http://www.habitatgwinnett.org", "category": "Black Lives Matter", "geometry": [33.9562149, -83.9879625]}, {"name": "Mountain Humane", "state": "ID", "link": "http://www.mountainhumane.org", "category": "Black Lives Matter", "geometry": [43.5091078, -114.3379378]}, {"name": "Cancer Wellness Center", "state": "IL", "link": "http://www.cancerwellness.org", "category": "Black Lives Matter", "geometry": [42.1486898, -87.8028059]}, {"name": "United Way of Madison County, Indiana", "state": "IN", "link": "http://www.unitedwaymadisonco.org/", "category": "Black Lives Matter", "geometry": [40.1053196, -85.6802541]}, {"name": "Cedar Valley United Way", "state": "IA", "link": "http://www.cedarvalleyunitedway.org/", "category": "Black Lives Matter", "geometry": [42.4968029, -92.34025179999999]}, {"name": "Salina Area United Way", "state": "KS", "link": "http://www.unitedwaysalina.org/", "category": "Black Lives Matter", "geometry": [38.8381093, -97.6072878]}, {"name": "United Way of the Bluegrass", "state": "KY", "link": "http://www.uwbg.org/", "category": "Black Lives Matter", "geometry": [38.0411783, -84.48866679999999]}, {"name": "Capital Area United Way, Louisiana", "state": "LA", "link": "http://www.cauw.org", "category": "Black Lives Matter", "geometry": [30.4503268, -91.18317660000001]}, {"name": "United Way of Greater Portland", "state": "ME", "link": "http://www.unitedwaygp.org/", "category": "Black Lives Matter", "geometry": [43.6567352, -70.25511879999999]}, {"name": "Ronald McDonald House Charities of Baltimore", "state": "MD", "link": "https://rmhcbaltimore.org/", "category": "Black Lives Matter", "geometry": [39.2911125, -76.6255453]}, {"name": "International OCD Foundation", "state": "MA", "link": "http://iocdf.org/", "category": "Black Lives Matter", "geometry": [42.3587826, -71.05962459999999]}, {"name": "Hope Clinic", "state": "MI", "link": "http://thehopeclinic.org/", "category": "Black Lives Matter", "geometry": [42.2340114, -83.61879619999999]}, {"name": "Los Cabos Children's Foundation", "state": "MN", "link": "http://www.loscaboschildren.org/", "category": "Black Lives Matter", "geometry": [44.7921231, -93.18224149999999]}, {"name": "United Way of South Mississippi", "state": "MS", "link": "http://www.unitedwaysm.org", "category": "Black Lives Matter", "geometry": [30.4335597, -89.0344349]}, {"name": "Lives Under Construction Boys Ranch", "state": "MO", "link": "http://www.lucboys.org/", "category": "Black Lives Matter", "geometry": [36.5207117, -93.503019]}, {"name": "Heart of the Valley Animal Shelter", "state": "MT", "link": "http://www.heartofthevalleyshelter.org/", "category": "Black Lives Matter", "geometry": [45.7528333, -111.1469845]}, {"name": "Heartland United Way", "state": "NE", "link": "http://www.heartlandunitedway.org/", "category": "Black Lives Matter", "geometry": [40.93367, -98.3774948]}, {"name": "Spread the Word Nevada", "state": "NV", "link": "http://spreadthewordnevada.org/", "category": "Black Lives Matter", "geometry": [36.0412932, -115.0329757]}, {"name": "Girls Inc. of New Hampshire", "state": "NH", "link": "http://www.girlsincnewhampshire.org/", "category": "Black Lives Matter", "geometry": [42.7506334, -71.4524776]}, {"name": "United Way of Central Jersey", "state": "NJ", "link": "http://www.uwcj.org/", "category": "Black Lives Matter", "geometry": [40.4505984, -74.4390195]}, {"name": "Animal Humane New Mexico", "state": "NM", "link": "http://www.animalhumanenm.org", "category": "Black Lives Matter", "geometry": [35.0672294, -106.5535733]}, {"name": "United Way of Westchester and Putnam", "state": "NY", "link": "http://www.uwwp.org/", "category": "Black Lives Matter", "geometry": [41.0284478, -73.7897732]}, {"name": "Speedway Children's Charities", "state": "NC", "link": "http://www.speedwaycharities.org", "category": "Black Lives Matter", "geometry": [35.3515472, -80.6865507]}, {"name": "Northlands Rescue Mission", "state": "ND", "link": "https://northlandsrescuemission.org/", "category": "Black Lives Matter", "geometry": [47.9218613, -97.02841319999999]}, {"name": "United Way of Greater Cleveland", "state": "OH", "link": "http://www.unitedwaycleveland.org", "category": "Black Lives Matter", "geometry": [41.5012406, -81.6823015]}, {"name": "Tulsa Habitat for Humanity Inc", "state": "OK", "link": "http://www.tulsahabitat.org/", "category": "Black Lives Matter", "geometry": [36.1445817, -95.9077901]}, {"name": "Dogs for Better Lives", "state": "OR", "link": "https://dogsforbetterlives.org/", "category": "Black Lives Matter", "geometry": [42.4618567, -122.9399109]}, {"name": "United Way of Lackawanna and Wayne Counties", "state": "PA", "link": "http://www.uwlc.net/", "category": "Black Lives Matter", "geometry": [41.41163969999999, -75.65596719999999]}, {"name": "Jewish Alliance of Greater Rhode Island", "state": "RI", "link": "http://www.jewishallianceri.org/", "category": "Black Lives Matter", "geometry": [41.841993, -71.3923609]}, {"name": "United Way of Aiken County", "state": "SC", "link": "http://www.uwaiken.org/", "category": "Black Lives Matter", "geometry": [33.5632062, -81.7211688]}, {"name": "Native American Heritage Association", "state": "SD", "link": "http://www.naha-inc.org", "category": "Black Lives Matter", "geometry": [44.1973716, -103.3430659]}, {"name": "United Way of Blount County", "state": "TN", "link": "http://www.liveunitedblount.org", "category": "Black Lives Matter", "geometry": [35.77199969999999, -83.9577267]}, {"name": "United Way of Denton County", "state": "TX", "link": "http://www.unitedwaydenton.org/", "category": "Black Lives Matter", "geometry": [33.2009958, -97.1223521]}, {"name": "Crossroads Urban Center", "state": "UT", "link": "https://www.crossroadsurbancenter.org/", "category": "Black Lives Matter", "geometry": [40.7615774, -111.8792392]}, {"name": "United Way of Roanoke Valley", "state": "VA", "link": "http://www.uwrv.org/", "category": "Black Lives Matter", "geometry": [37.271701, -79.946737]}, {"name": "Imagine Children's Museum", "state": "WA", "link": "http://www.imaginecm.org/", "category": "Black Lives Matter", "geometry": [47.9775102, -122.2096167]}, {"name": "Rawhide", "state": "WI", "link": "http://www.rawhide.org", "category": "Black Lives Matter", "geometry": [44.3098219, -88.853787]}, {"name": "Jackson Hole Conservation Alliance", "state": "WY", "link": "http://www.jhalliance.org/", "category": "Black Lives Matter", "geometry": [43.4719603, -110.7625561]}]