[{"name": "Christian Family Care", "state": "AZ", "link": "http://www.cfcare.org/", "category": "COVID-19 Relief", "geometry": [33.4897472, -112.0828012]}, {"name": "MEND - Meet Each Need with Dignity", "state": "CA", "link": "http://www.mendpoverty.org/", "category": "COVID-19 Relief", "geometry": [34.26308470000001, -118.4195049]}, {"name": "Weld Food Bank", "state": "CO", "link": "http://www.weldfoodbank.org/", "category": "COVID-19 Relief", "geometry": [40.443663, -104.698779]}, {"name": "Catholic Charities, Diocese of Norwich", "state": "CT", "link": "http://www.ccfsn.org", "category": "COVID-19 Relief", "geometry": [41.524004, -72.0717684]}, {"name": "Judeo Christian Health Clinic", "state": "FL", "link": "http://www.judeochristianhealthclinic.org/", "category": "COVID-19 Relief", "geometry": [27.9769685, -82.4942052]}, {"name": "Cancer Wellness Center", "state": "IL", "link": "http://www.cancerwellness.org", "category": "COVID-19 Relief", "geometry": [42.1486898, -87.8028059]}, {"name": "The Mind Trust", "state": "IN", "link": "http://www.themindtrust.org/", "category": "COVID-19 Relief", "geometry": [39.7891943, -86.1578724]}, {"name": "Food Bank of Siouxland", "state": "IA", "link": "http://foodbanksiouxland.wordpress.com/", "category": "COVID-19 Relief", "geometry": [42.5025003, -96.3929297]}, {"name": "Kansas Food Bank", "state": "KS", "link": "http://www.kansasfoodbank.org/", "category": "COVID-19 Relief", "geometry": [37.6856716, -97.3143615]}, {"name": "Bottom Line", "state": "MA", "link": "http://www.bottomline.org/", "category": "COVID-19 Relief", "geometry": [42.3569814, -71.0576224]}, {"name": "Big Brothers Big Sisters of Metropolitan Detroit", "state": "MI", "link": "http://www.bbbsdetroit.org", "category": "COVID-19 Relief", "geometry": [42.3727232, -83.0781222]}, {"name": "United Way of the Lewis and Clark Area", "state": "MT", "link": "http://www.unitedwaylca.org/", "category": "COVID-19 Relief", "geometry": [46.597955, -112.02963]}, {"name": "New York City Relief/The Relief Bus", "state": "NJ", "link": "http://newyorkcityrelief.org/", "category": "COVID-19 Relief", "geometry": [40.6687557, -74.21293419999999]}, {"name": "NDI New Mexico", "state": "NM", "link": "http://www.ndi-nm.org", "category": "COVID-19 Relief", "geometry": [35.6832065, -105.9655057]}, {"name": "enCourage Kids Foundation", "state": "NY", "link": "http://encourage-kids.org/", "category": "COVID-19 Relief", "geometry": [40.758755, -73.9845905]}, {"name": "Junior Achievement of Central Carolinas", "state": "NC", "link": "https://www.juniorachievement.org/web/ja-carolinas", "category": "COVID-19 Relief", "geometry": [35.245438, -80.832093]}, {"name": "Northlands Rescue Mission", "state": "ND", "link": "https://northlandsrescuemission.org/", "category": "COVID-19 Relief", "geometry": [47.9218613, -97.02841319999999]}, {"name": "House of Bread", "state": "OH", "link": "http://houseofbread.org/", "category": "COVID-19 Relief", "geometry": [39.7599049, -84.20964219999999]}, {"name": "Children's Hospital Foundation", "state": "OK", "link": "http://www.chfKids.com", "category": "COVID-19 Relief", "geometry": [35.4766576, -97.50382820000002]}, {"name": "Water Street Ministries", "state": "PA", "link": "http://wsm.org/", "category": "COVID-19 Relief", "geometry": [40.0340117, -76.3073258]}, {"name": "Grapevine Relief And Community Exchange", "state": "TX", "link": "http://gracegrapevine.org", "category": "COVID-19 Relief", "geometry": [32.9473842, -97.08228439999999]}, {"name": "Blue Ridge Area Food Bank", "state": "VA", "link": "http://www.brafb.org", "category": "COVID-19 Relief", "geometry": [38.1996485, -79.0050802]}, {"name": "Harvest Against Hunger", "state": "WA", "link": "http://www.harvestagainsthunger.org/", "category": "COVID-19 Relief", "geometry": [47.5920467, -122.3348063]}]