[{"name": "Rodeheaver Boys Ranch", "state": "FL", "link": "http://www.rbr.org/", "category": "Disability", "geometry": [29.5404512, -81.7116896]}, {"name": "Chicago Legal Clinic", "state": "IL", "link": "http://www.clclaw.org/", "category": "Disability", "geometry": [41.7304152, -87.552358]}, {"name": "The Center for Courageous Kids", "state": "KY", "link": "http://www.courageouskids.org/", "category": "Disability", "geometry": [36.7731928, -86.2235244]}, {"name": "Jewish Family Service of Greater New Orleans", "state": "LA", "link": "http://www.jfsneworleans.org/", "category": "Disability", "geometry": [30.0137921, -90.156594]}, {"name": "Pine Tree Society", "state": "ME", "link": "http://www.pinetreesociety.org/", "category": "Disability", "geometry": [43.9144612, -69.8140009]}, {"name": "Jewish Federation of Somerset, Hunterdon & Warren Counties", "state": "NJ", "link": "http://www.jfedshaw.org", "category": "Disability", "geometry": [40.6124409, -74.63049]}, {"name": "Independent Catholic Foundation for the Diocese of Altoona-Johnstown", "state": "PA", "link": "http://independentcatholicfoundation.org/", "category": "Disability", "geometry": [40.4890279, -78.4129323]}, {"name": "Camp John Marc", "state": "TX", "link": "http://www.campjohnmarc.org/", "category": "Disability", "geometry": [32.8028128, -96.80382230000001]}, {"name": "SIGN Fracture Care International", "state": "WA", "link": "http://signfracturecare.org/", "category": "Disability", "geometry": [46.3381124, -119.2714142]}]