[{"name": "Alabama Law Foundation", "state": "AL", "link": "http://www.alabamalawfoundation.org/", "category": "Education", "geometry": [32.3792233, -86.3077368]}, {"name": "Arizona Private Education Scholarship Fund", "state": "AZ", "link": "http://apesf.org/", "category": "Education", "geometry": [33.6219412, -111.932069]}, {"name": "Humane Society of Pulaski County", "state": "AR", "link": "http://www.warmhearts.org", "category": "Education", "geometry": [34.7116772, -92.43994359999999]}, {"name": "Palo Alto Partners in Education", "state": "CA", "link": "http://www.papie.org", "category": "Education", "geometry": [37.4335666, -122.1549132]}, {"name": "Seeds of Hope Charitable Trust", "state": "CO", "link": "http://www.seedsofhopedenver.org/", "category": "Education", "geometry": [39.69348249999999, -104.9483767]}, {"name": "Bridgeport Rescue Mission", "state": "CT", "link": "http://www.bridgeportrescuemission.org/", "category": "Education", "geometry": [41.17447629999999, -73.2051829]}, {"name": "Mid-Atlantic Foundation for Safety and Education", "state": "DE", "link": "http://midatlantic.aaa.com/Foundation/Overview", "category": "Education", "geometry": [39.736917, -75.558444]}, {"name": "ULI Foundation", "state": "DC", "link": "http://foundation.uli.org", "category": "Education", "geometry": [38.9040198, -77.0452025]}, {"name": "Center for Creative Education", "state": "FL", "link": "http://www.cceflorida.org/", "category": "Education", "geometry": [26.7358314, -80.05423449999999]}, {"name": "JELF - Jewish Educational Loan Fund", "state": "GA", "link": "https://jelf.org/", "category": "Education", "geometry": [33.9252526, -84.3145105]}, {"name": "Hawaiian Humane Society", "state": "HI", "link": "http://www.hawaiianhumane.org", "category": "Education", "geometry": [21.2905058, -157.8182996]}, {"name": "The Sun Valley Center for the Arts", "state": "ID", "link": "http://sunvalleycenter.org/", "category": "Education", "geometry": [43.6817414, -114.3630333]}, {"name": "Daniel Murphy Scholarship Fund", "state": "IL", "link": "http://www.dmsf.org/", "category": "Education", "geometry": [41.88294810000001, -87.63564199999999]}, {"name": "The Mind Trust", "state": "IN", "link": "http://www.themindtrust.org/", "category": "Education", "geometry": [39.7891943, -86.1578724]}, {"name": "United Way of Siouxland", "state": "IA", "link": "http://www.unitedwaysiouxland.com/", "category": "Education", "geometry": [42.4978446, -96.3892937]}, {"name": "Salina Area United Way", "state": "KS", "link": "http://www.unitedwaysalina.org/", "category": "Education", "geometry": [38.8381093, -97.6072878]}, {"name": "Prichard Committee for Academic Excellence", "state": "KY", "link": "http://www.prichardcommittee.org/", "category": "Education", "geometry": [38.048656, -84.49784249999999]}, {"name": "Jewish Children's Regional Service", "state": "LA", "link": "http://www.jcrs.org/", "category": "Education", "geometry": [30.0125276, -90.1567403]}, {"name": "Immigrant Legal Advocacy Project", "state": "ME", "link": "http://www.ilapmaine.org", "category": "Education", "geometry": [43.6568173, -70.2603191]}, {"name": "Montgomery County Humane Society", "state": "MD", "link": "http://mchumane.org", "category": "Education", "geometry": [39.0827018, -77.1436179]}, {"name": "Gateways: Access to Jewish Education", "state": "MA", "link": "https://www.jgateways.org", "category": "Education", "geometry": [42.2993233, -71.20363859999999]}, {"name": "Michigan League for Public Policy", "state": "MI", "link": "http://www.mlpp.org/", "category": "Education", "geometry": [42.7482595, -84.5499423]}, {"name": "Page Education Foundation", "state": "MN", "link": "https://www.page-ed.org/", "category": "Education", "geometry": [44.9886327, -93.2813742]}, {"name": "United Way of West Central Mississippi", "state": "MS", "link": "http://www.unitedwayvicksburg.org/", "category": "Education", "geometry": [32.3474674, -90.8792076]}, {"name": "Scholarship Foundation of St. Louis", "state": "MO", "link": "https://www.sfstl.org/", "category": "Education", "geometry": [38.6323645, -90.3036786]}, {"name": "Heart of the Valley Animal Shelter", "state": "MT", "link": "http://www.heartofthevalleyshelter.org/", "category": "Education", "geometry": [45.7528333, -111.1469845]}, {"name": "Jewish Federation of Omaha", "state": "NE", "link": "http://www.jewishomaha.org/", "category": "Education", "geometry": [41.2568308, -96.1170563]}, {"name": "Ronald McDonald House Charities of Greater Las Vegas", "state": "NV", "link": "http://www.rmhlv.com/", "category": "Education", "geometry": [36.1464569, -115.2142502]}, {"name": "New Hampshire Association for the Blind", "state": "NH", "link": "http://www.sightcenter.org/", "category": "Education", "geometry": [43.214996, -71.5466624]}, {"name": "New Jersey SEEDS", "state": "NJ", "link": "http://www.njseeds.org", "category": "Education", "geometry": [40.7447386, -74.1692731]}, {"name": "New Mexico BioPark Society", "state": "NM", "link": "http://bioparksociety.org", "category": "Education", "geometry": [35.0778226, -106.6637637]}, {"name": "Hudson Link for Higher Education in Prison", "state": "NY", "link": "http://www.hudsonlink.org/", "category": "Education", "geometry": [41.1628731, -73.8615246]}, {"name": "Ada Jenkins Families and Careers Development Center", "state": "NC", "link": "https://www.adajenkins.org", "category": "Education", "geometry": [35.49893369999999, -80.85375859999999]}, {"name": "Cancer Support Community Greater Cincinnati-Northern Kentucky", "state": "OH", "link": "http://cancersupportcincinnati.org/", "category": "Education", "geometry": [39.2305838, -84.3731171]}, {"name": "Children's Hospital Foundation", "state": "OK", "link": "http://www.chfKids.com", "category": "Education", "geometry": [35.4766576, -97.50382820000002]}, {"name": "Southern Oregon Humane Society", "state": "OR", "link": "http://www.sohumane.org/", "category": "Education", "geometry": [42.3587799, -122.8848072]}, {"name": "Hawk Mountain Sanctuary", "state": "PA", "link": "http://www.hawkmountain.org/", "category": "Education", "geometry": [40.6349348, -75.9869638]}, {"name": "Jewish Alliance of Greater Rhode Island", "state": "RI", "link": "http://www.jewishallianceri.org/", "category": "Education", "geometry": [41.841993, -71.3923609]}, {"name": "United Way of Aiken County", "state": "SC", "link": "http://www.uwaiken.org/", "category": "Education", "geometry": [33.5632062, -81.7211688]}, {"name": "Crazy Horse Memorial Foundation", "state": "SD", "link": "https://crazyhorsememorial.org/", "category": "Education", "geometry": [43.8280823, -103.6316836]}, {"name": "Wears Valley Ranch", "state": "TN", "link": "http://www.wvr.org/", "category": "Education", "geometry": [35.701048, -83.643884]}, {"name": "Educational First Steps", "state": "TX", "link": "http://www.educationalfirststeps.org/", "category": "Education", "geometry": [32.7873346, -96.7854426]}, {"name": "Humane Society of Utah", "state": "UT", "link": "http://www.utahhumane.org/", "category": "Education", "geometry": [40.6795232, -111.9008474]}, {"name": "Vermont Institute of Natural Science", "state": "VT", "link": "http://www.vinsweb.org/", "category": "Education", "geometry": [43.646227, -72.4186105]}, {"name": "WHRO", "state": "VA", "link": "http://www.whro.org", "category": "Education", "geometry": [36.8896885, -76.30248499999999]}, {"name": "PAWS (Progressive Animal Welfare Society)", "state": "WA", "link": "https://www.paws.org/", "category": "Education", "geometry": [47.8591338, -122.2915207]}, {"name": "Chestnut Mountain Ranch", "state": "WV", "link": "https://cmrwv.org/", "category": "Education", "geometry": [39.5732295, -79.9123378]}, {"name": "Discovery World", "state": "WI", "link": "http://www.discoveryworld.org/", "category": "Education", "geometry": [43.0368557, -87.8957252]}, {"name": "National Museum of Wildlife Art", "state": "WY", "link": "http://www.wildlifeart.org/", "category": "Education", "geometry": [43.5190643, -110.7489519]}]