[{"name": "Trustees for Alaska", "state": "AK", "link": "http://www.trustees.org/", "category": "Environment", "geometry": [61.21841119999999, -149.9029121]}, {"name": "Grand Canyon Trust", "state": "AZ", "link": "http://www.grandcanyontrust.org", "category": "Environment", "geometry": [35.2267116, -111.6593185]}, {"name": "Union Rescue Mission, Little Rock", "state": "AR", "link": "http://www.urmissionlr.org/", "category": "Environment", "geometry": [34.7196682, -92.258712]}, {"name": "Environmental Defense Center", "state": "CA", "link": "http://www.environmentaldefensecenter.org/", "category": "Environment", "geometry": [34.42415769999999, -119.6972294]}, {"name": "YMCA of the Rockies", "state": "CO", "link": "http://www.ymcarockies.org", "category": "Environment", "geometry": [40.33980469999999, -105.5735431]}, {"name": "Connecticut Audubon Society", "state": "CT", "link": "http://www.ctaudubon.org", "category": "Environment", "geometry": [41.1452627, -73.2589388]}, {"name": "The SEED Foundation", "state": "DC", "link": "http://www.seedfoundation.com/", "category": "Environment", "geometry": [38.9058785, -77.0394804]}, {"name": "Conservancy of Southwest Florida", "state": "FL", "link": "http://www.conservancy.org", "category": "Environment", "geometry": [26.1660788, -81.787246]}, {"name": "Georgia Conservancy", "state": "GA", "link": "http://www.georgiaconservancy.org", "category": "Environment", "geometry": [33.7600779, -84.3878652]}, {"name": "Save-A-Pet Adoption Center", "state": "IL", "link": "http://www.saveapetil.org", "category": "Environment", "geometry": [42.3230824, -88.1124346]}, {"name": "Vanderburgh Humane Society", "state": "IN", "link": "http://www.vhslifesaver.org/", "category": "Environment", "geometry": [37.99258340000001, -87.5700955]}, {"name": "Camp Courageous of Iowa", "state": "IA", "link": "http://www.campcourageous.org/", "category": "Environment", "geometry": [42.208049, -91.108418]}, {"name": "Kentucky Coalition", "state": "KY", "link": "http://www.kftc.org/KCDonation", "category": "Environment", "geometry": [37.0824781, -84.13269179999999]}, {"name": "Jewish Family Service of Greater New Orleans", "state": "LA", "link": "http://www.jfsneworleans.org/", "category": "Environment", "geometry": [30.0137921, -90.156594]}, {"name": "Nantucket Community Sailing", "state": "MA", "link": "http://nantucketcommunitysailing.org/", "category": "Environment", "geometry": [41.282471, -70.10234489999999]}, {"name": "Michigan Environmental Council", "state": "MI", "link": "http://www.environmentalcouncil.org/", "category": "Environment", "geometry": [42.73634850000001, -84.5603403]}, {"name": "American Youth Foundation", "state": "MO", "link": "http://www.ayf.com/", "category": "Environment", "geometry": [38.6340826, -90.3084452]}, {"name": "DISCOVERY Children's Museum", "state": "NV", "link": "https://www.discoverykidslv.org/", "category": "Environment", "geometry": [36.1687046, -115.1525552]}, {"name": "Girls Inc. of New Hampshire", "state": "NH", "link": "http://www.girlsincnewhampshire.org/", "category": "Environment", "geometry": [42.7506334, -71.4524776]}, {"name": "Great Swamp Watershed Association", "state": "NJ", "link": "http://www.greatswamp.org/", "category": "Environment", "geometry": [40.757239, -74.5383867]}, {"name": "Greater Albuquerque Habitat for Humanity", "state": "NM", "link": "http://habitatabq.org/", "category": "Environment", "geometry": [35.1084372, -106.5892536]}, {"name": "Environmental Advocates of New York", "state": "NY", "link": "http://www.eany.org/", "category": "Environment", "geometry": [42.652246, -73.7648392]}, {"name": "Appalachian Voices", "state": "NC", "link": "http://www.appvoices.org/", "category": "Environment", "geometry": [36.217989, -81.6833068]}, {"name": "Northlands Rescue Mission", "state": "ND", "link": "https://northlandsrescuemission.org/", "category": "Environment", "geometry": [47.9218613, -97.02841319999999]}, {"name": "ArtsWave", "state": "OH", "link": "https://www.artswave.org/", "category": "Environment", "geometry": [39.1077076, -84.5135756]}, {"name": "Little Light House", "state": "OK", "link": "http://www.littlelighthouse.org/", "category": "Environment", "geometry": [36.1103674, -95.9205815]}, {"name": "Western Environmental Law Center", "state": "OR", "link": "http://www.westernlaw.org", "category": "Environment", "geometry": [44.0558957, -123.0939073]}, {"name": "Rhode Island Zoological Society", "state": "RI", "link": "https://www.rwpzoo.org/about/rhode-island-zoological-society", "category": "Environment", "geometry": [41.7839622, -71.41710239999999]}, {"name": "Ronald McDonald House Charities of Charleston", "state": "SC", "link": "http://www.rmhcharleston.org/", "category": "Environment", "geometry": [32.7823739, -79.9470316]}, {"name": "American Eagle Foundation", "state": "TN", "link": "http://www.eagles.org/", "category": "Environment", "geometry": [35.7883788, -83.56142129999999]}, {"name": "EarthShare Texas", "state": "TX", "link": "http://www.earthshare-texas.org/", "category": "Environment", "geometry": [30.3702187, -97.7344078]}, {"name": "The Christmas Box International", "state": "UT", "link": "https://www.thechristmasboxhouse.org", "category": "Environment", "geometry": [40.6913364, -111.8943215]}, {"name": "Vermont Institute of Natural Science", "state": "VT", "link": "http://www.vinsweb.org/", "category": "Environment", "geometry": [43.646227, -72.4186105]}, {"name": "Southern Environmental Law Center", "state": "VA", "link": "http://www.southernenvironment.org/", "category": "Environment", "geometry": [38.0307918, -78.4803003]}, {"name": "IslandWood", "state": "WA", "link": "http://islandwood.org/", "category": "Environment", "geometry": [47.6051414, -122.5328157]}, {"name": "Riveredge Nature Center", "state": "WI", "link": "http://riveredgenaturecenter.org/", "category": "Environment", "geometry": [43.4391393, -88.0236469]}]