[{"name": "United Way of Baldwin County", "state": "AL", "link": "http://www.unitedway-bc.org/", "category": "Health", "geometry": [30.4128311, -87.6833453]}, {"name": "Alaska Conservation Foundation", "state": "AK", "link": "http://alaskaconservation.org/", "category": "Health", "geometry": [61.2138036, -149.907044]}, {"name": "Ronald McDonald House Charities of Southern Arizona", "state": "AZ", "link": "https://rmhctucson.org/", "category": "Health", "geometry": [32.2761738, -110.9401885]}, {"name": "Humane Society of Pulaski County", "state": "AR", "link": "http://www.warmhearts.org", "category": "Health", "geometry": [34.7116772, -92.43994359999999]}, {"name": "Breathe California of Los Angeles County", "state": "CA", "link": "http://www.breathela.org", "category": "Health", "geometry": [34.0622108, -118.3564049]}, {"name": "Can Do Multiple Sclerosis", "state": "CO", "link": "http://www.cando-ms.org", "category": "Health", "geometry": [39.635214, -106.5239441]}, {"name": "The Greenwich United Way", "state": "CT", "link": "http://www.greenwichunitedway.org", "category": "Health", "geometry": [41.0179263, -73.64525069999999]}, {"name": "The SEED Foundation", "state": "DC", "link": "http://www.seedfoundation.com/", "category": "Health", "geometry": [38.9058785, -77.0394804]}, {"name": "Judeo Christian Health Clinic", "state": "FL", "link": "http://www.judeochristianhealthclinic.org/", "category": "Health", "geometry": [27.9769685, -82.4942052]}, {"name": "United Way of the CSRA", "state": "GA", "link": "http://www.uwcsra.org/", "category": "Health", "geometry": [33.4846823, -81.9930856]}, {"name": "Hawaiian Humane Society", "state": "HI", "link": "http://www.hawaiianhumane.org", "category": "Health", "geometry": [21.2905058, -157.8182996]}, {"name": "United Way of Treasure Valley", "state": "ID", "link": "http://www.unitedwaytv.org/", "category": "Health", "geometry": [43.5737709, -116.2136124]}, {"name": "Respiratory Health Association", "state": "IL", "link": "http://www.resphealth.org/", "category": "Health", "geometry": [41.8831677, -87.6635845]}, {"name": "United Way of Madison County, Indiana", "state": "IN", "link": "http://www.unitedwaymadisonco.org/", "category": "Health", "geometry": [40.1053196, -85.6802541]}, {"name": "United Way of Siouxland", "state": "IA", "link": "http://www.unitedwaysiouxland.com/", "category": "Health", "geometry": [42.4978446, -96.3892937]}, {"name": "Special Olympics Kansas", "state": "KS", "link": "http://www.ksso.org", "category": "Health", "geometry": [39.0334899, -94.6666726]}, {"name": "Kentucky Coalition", "state": "KY", "link": "http://www.kftc.org/KCDonation", "category": "Health", "geometry": [37.0824781, -84.13269179999999]}, {"name": "United Way of Northwest Louisiana", "state": "LA", "link": "http://www.unitedwaynwla.org/", "category": "Health", "geometry": [32.4991767, -93.7475654]}, {"name": "Vision New England", "state": "ME", "link": "http://www.visionnewengland.org/", "category": "Health", "geometry": [43.4135767, -70.75164749999999]}, {"name": "The Children's Inn at NIH", "state": "MD", "link": "http://www.childrensinn.org/", "category": "Health", "geometry": [39.0045991, -77.10527739999999]}, {"name": "Jewish Family Service of Metrowest", "state": "MA", "link": "http://jfsmw.org/", "category": "Health", "geometry": [42.2894542, -71.4279419]}, {"name": "Ecology Center", "state": "MI", "link": "http://www.ecocenter.org", "category": "Health", "geometry": [42.279577, -83.74446770000002]}, {"name": "United Way of Washington County East", "state": "MN", "link": "http://www.uwwce.org/", "category": "Health", "geometry": [45.0396663, -92.83075079999999]}, {"name": "Mississippi Children's Museum", "state": "MS", "link": "http://mschildrensmuseum.org/", "category": "Health", "geometry": [32.3287444, -90.15726939999999]}, {"name": "Thrive St. Louis", "state": "MO", "link": "http://thrivealivestl.org/", "category": "Health", "geometry": [38.6415501, -90.251635]}, {"name": "United Way of the Lewis and Clark Area", "state": "MT", "link": "http://www.unitedwaylca.org/", "category": "Health", "geometry": [46.597955, -112.02963]}, {"name": "United Way of Lincoln and Lancaster County", "state": "NE", "link": "http://www.unitedwaylincoln.org/", "category": "Health", "geometry": [40.8116264, -96.7023897]}, {"name": "Ronald McDonald House Charities of Greater Las Vegas", "state": "NV", "link": "http://www.rmhlv.com/", "category": "Health", "geometry": [36.1464569, -115.2142502]}, {"name": "Girls Inc. of New Hampshire", "state": "NH", "link": "http://www.girlsincnewhampshire.org/", "category": "Health", "geometry": [42.7506334, -71.4524776]}, {"name": "United Way of Essex and West Hudson", "state": "NJ", "link": "http://www.uwewh.org/", "category": "Health", "geometry": [40.7382754, -74.1689062]}, {"name": "Animal Humane New Mexico", "state": "NM", "link": "http://www.animalhumanenm.org", "category": "Health", "geometry": [35.0672294, -106.5535733]}, {"name": "Children's Aid", "state": "NY", "link": "https://www.childrensaidnyc.org/", "category": "Health", "geometry": [40.75224860000001, -73.9729531]}, {"name": "United Way of Greater Greensboro", "state": "NC", "link": "http://www.unitedwaygso.org/", "category": "Health", "geometry": [36.0936183, -79.77937089999999]}, {"name": "United Way of Greater Cleveland", "state": "OH", "link": "http://www.unitedwaycleveland.org", "category": "Health", "geometry": [41.5012406, -81.6823015]}, {"name": "Children's Hospital Foundation", "state": "OK", "link": "http://www.chfKids.com", "category": "Health", "geometry": [35.4766576, -97.50382820000002]}, {"name": "Volunteers In Medicine Clinic, Oregon", "state": "OR", "link": "http://www.vim-clinic.org", "category": "Health", "geometry": [44.0646958, -122.9925139]}, {"name": "United Way of Chester County", "state": "PA", "link": "http://www.liveunitedchestercounty.org/", "category": "Health", "geometry": [40.0230727, -75.6533116]}, {"name": "Volunteers in Medicine Clinic Hilton Head Island", "state": "SC", "link": "http://www.vimclinic.org", "category": "Health", "geometry": [32.2176996, -80.7065725]}, {"name": "United Way of Blount County", "state": "TN", "link": "http://www.liveunitedblount.org", "category": "Health", "geometry": [35.77199969999999, -83.9577267]}, {"name": "Bo's Place", "state": "TX", "link": "http://www.bosplace.org/", "category": "Health", "geometry": [29.672954, -95.4251711]}, {"name": "Voices for Utah Children", "state": "UT", "link": "http://www.utahchildren.org/", "category": "Health", "geometry": [40.7696952, -111.8693119]}, {"name": "Southern Environmental Law Center", "state": "VA", "link": "http://www.southernenvironment.org/", "category": "Health", "geometry": [38.0307918, -78.4803003]}, {"name": "United Way of Whatcom County", "state": "WA", "link": "http://www.unitedwaywhatcom.org", "category": "Health", "geometry": [48.7517891, -122.4755884]}, {"name": "Rawhide", "state": "WI", "link": "http://www.rawhide.org", "category": "Health", "geometry": [44.3098219, -88.853787]}]