[{"name": "Humane Society of Pulaski County", "state": "AR", "link": "http://www.warmhearts.org", "category": "Housing & Homelessness", "geometry": [34.7116772, -92.43994359999999]}, {"name": "Orange County United Way", "state": "CA", "link": "http://www.unitedwayoc.org", "category": "Housing & Homelessness", "geometry": [33.6914688, -117.8629653]}, {"name": "Middlesex United Way", "state": "CT", "link": "http://www.middlesexunitedway.org/", "category": "Housing & Homelessness", "geometry": [41.5604553, -72.6489682]}, {"name": "Dc Habitat for Humanity Inc", "state": "DC", "link": "http://www.dchabitat.org", "category": "Housing & Homelessness", "geometry": [38.9067455, -77.0474734]}, {"name": "Habitat for Humanity In Seminole County Florida Inc", "state": "FL", "link": "http://habitatseminoleapopka.org/", "category": "Housing & Homelessness", "geometry": [28.6828978, -81.3341184]}, {"name": "Atlanta Mission", "state": "GA", "link": "https://atlantamission.org/", "category": "Housing & Homelessness", "geometry": [33.819775, -84.4605002]}, {"name": "Chicago Coalition for the Homeless", "state": "IL", "link": "http://www.chicagohomeless.org", "category": "Housing & Homelessness", "geometry": [41.8859336, -87.6255305]}, {"name": "Habitat for Humanity of Monroe County Inc", "state": "IN", "link": "http://www.monroecountyhabitat.org", "category": "Housing & Homelessness", "geometry": [39.1667997, -86.5315653]}, {"name": "Habitat for Humanity of Greater Baton Rouge Inc", "state": "LA", "link": "http://www.habitatbr.org", "category": "Housing & Homelessness", "geometry": [30.4506587, -91.1230899]}, {"name": "Animal Welfare Society", "state": "ME", "link": "https://animalwelfaresociety.org/", "category": "Housing & Homelessness", "geometry": [43.4073111, -70.58628139999999]}, {"name": "Operation Second Chance", "state": "MD", "link": "http://www.operationsecondchance.org/index", "category": "Housing & Homelessness", "geometry": [39.188709, -77.26054069999999]}, {"name": "Abby's House", "state": "MA", "link": "http://www.abbyshouse.org/", "category": "Housing & Homelessness", "geometry": [42.26121939999999, -71.80492199999999]}, {"name": "Greater Ottawa County United Way", "state": "MI", "link": "http://www.ottawaunitedway.org", "category": "Housing & Homelessness", "geometry": [42.79359059999999, -86.08267579999999]}, {"name": "Bridging", "state": "MN", "link": "http://www.bridging.org", "category": "Housing & Homelessness", "geometry": [44.8457981, -93.2829634]}, {"name": "Mississippi Children's Museum", "state": "MS", "link": "http://mschildrensmuseum.org/", "category": "Housing & Homelessness", "geometry": [32.3287444, -90.15726939999999]}, {"name": "Ronald McDonald House Charities of Greater Las Vegas", "state": "NV", "link": "http://www.rmhlv.com/", "category": "Housing & Homelessness", "geometry": [36.1464569, -115.2142502]}, {"name": "Atlantic City Rescue Mission", "state": "NJ", "link": "http://www.acrescuemission.org/", "category": "Housing & Homelessness", "geometry": [39.3650061, -74.4400141]}, {"name": "Habitat for Humanity of Greater Newburgh Inc", "state": "NY", "link": "http://habitatnewburgh.org/", "category": "Housing & Homelessness", "geometry": [41.49827, -74.0127065]}, {"name": "Raleigh Rescue Mission", "state": "NC", "link": "http://www.raleighrescue.org/", "category": "Housing & Homelessness", "geometry": [35.7778233, -78.6342883]}, {"name": "United Way of Union County", "state": "OH", "link": "http://www.unitedwayofunioncounty.org", "category": "Housing & Homelessness", "geometry": [40.227151, -83.34727]}, {"name": "Tulsa Habitat for Humanity Inc", "state": "OK", "link": "http://www.tulsahabitat.org/", "category": "Housing & Homelessness", "geometry": [36.1445817, -95.9077901]}, {"name": "Jon Bon Jovi Soul Foundation", "state": "PA", "link": "http://www.jbjsf.org ", "category": "Housing & Homelessness", "geometry": [39.9525474, -75.1673521]}, {"name": "Interfaith Family Services", "state": "TX", "link": "http://www.interfaithdallas.org", "category": "Housing & Homelessness", "geometry": [32.810892, -96.76923939999999]}, {"name": "Habitat for Humanity of Northern Virginia Inc", "state": "VA", "link": "http://www.habitatnova.org/", "category": "Housing & Homelessness", "geometry": [38.8021931, -77.1424045]}, {"name": "Habitat for Humanity of East Jefferson County", "state": "WA", "link": "http://www.habitatejc.org/", "category": "Housing & Homelessness", "geometry": [48.1030224, -122.7993264]}, {"name": "Middleton Outreach Ministry", "state": "WI", "link": "http://www.momhelps.org/", "category": "Housing & Homelessness", "geometry": [43.1129306, -89.5116643]}]