[{"name": "Downtown Rescue Mission", "state": "AL", "link": "http://www.downtownrescuemission.org", "category": "Refugee Crisis", "geometry": [34.7397698, -86.6405078]}, {"name": "Christian Family Care", "state": "AZ", "link": "http://www.cfcare.org/", "category": "Refugee Crisis", "geometry": [33.4897472, -112.0828012]}, {"name": "Rescue Mission Alliance", "state": "CA", "link": "http://www.erescuemission.org/", "category": "Refugee Crisis", "geometry": [34.2054534, -119.1788112]}, {"name": "The Wild Animal Sanctuary", "state": "CO", "link": "http://wildanimalsanctuary.org", "category": "Refugee Crisis", "geometry": [40.0286106, -104.5653689]}, {"name": "Washington Area Women's Foundation", "state": "DC", "link": "http://www.thewomensfoundation.org", "category": "Refugee Crisis", "geometry": [38.9003812, -77.03097749999999]}, {"name": "Children in Crisis", "state": "FL", "link": "http://www.childrenincrisisfl.org/", "category": "Refugee Crisis", "geometry": [30.4479255, -86.64737699999999]}, {"name": "Atlanta Mission", "state": "GA", "link": "https://atlantamission.org/", "category": "Refugee Crisis", "geometry": [33.819775, -84.4605002]}, {"name": "Jewish United Fund of Chicago", "state": "IL", "link": "http://www.juf.org", "category": "Refugee Crisis", "geometry": [41.8810088, -87.63424189999999]}, {"name": "Catholic Charities, Inc. - Diocese of Wichita ", "state": "KS", "link": "http://catholicdioceseofwichita.org/catholic-charities", "category": "Refugee Crisis", "geometry": [37.7485205, -97.334189]}, {"name": "Animal Refuge League", "state": "ME", "link": "http://arlgp.org", "category": "Refugee Crisis", "geometry": [43.6654806, -70.3479445]}, {"name": "Montgomery County Humane Society", "state": "MD", "link": "http://mchumane.org", "category": "Refugee Crisis", "geometry": [39.0827018, -77.1436179]}, {"name": "Women's Lunch Place", "state": "MA", "link": "http://www.womenslunchplace.org/", "category": "Refugee Crisis", "geometry": [42.3521496, -71.07396539999999]}, {"name": "Michigan Anti-Cruelty Society", "state": "MI", "link": "http://www.macsshelter.org/", "category": "Refugee Crisis", "geometry": [42.4148507, -83.0703229]}, {"name": "Valley Outreach", "state": "MN", "link": "http://valleyoutreachmn.org", "category": "Refugee Crisis", "geometry": [45.0397447, -92.83134539999999]}, {"name": "French Camp Academy", "state": "MS", "link": "http://www.frenchcamp.org", "category": "Refugee Crisis", "geometry": [33.289875, -89.40029]}, {"name": "Greater Yellowstone Coalition", "state": "MT", "link": "http://www.greateryellowstone.org/", "category": "Refugee Crisis", "geometry": [45.6765834, -111.0290121]}, {"name": "Ronald McDonald House Charities in Omaha", "state": "NE", "link": "http://www.rmhcomaha.org/", "category": "Refugee Crisis", "geometry": [41.2539542, -95.97090349999999]}, {"name": "Greater Albuquerque Habitat for Humanity", "state": "NM", "link": "http://habitatabq.org/", "category": "Refugee Crisis", "geometry": [35.1084372, -106.5892536]}, {"name": "New York Adult & Teen Challenge", "state": "NY", "link": "http://litcny.org/", "category": "Refugee Crisis", "geometry": [40.7114431, -73.3456781]}, {"name": "Crossnore School", "state": "NC", "link": "http://www.crossnoreschool.org", "category": "Refugee Crisis", "geometry": [36.0224548, -81.9302289]}, {"name": "Northlands Rescue Mission", "state": "ND", "link": "https://northlandsrescuemission.org/", "category": "Refugee Crisis", "geometry": [47.9218613, -97.02841319999999]}, {"name": "SPCA Cincinnati", "state": "OH", "link": "http://www.spcacincinnati.org/", "category": "Refugee Crisis", "geometry": [39.1583677, -84.54531589999999]}, {"name": "Ronald McDonald House Charities of Oklahoma City", "state": "OK", "link": "http://www.rmhcokc.org/", "category": "Refugee Crisis", "geometry": [35.48439550000001, -97.4887553]}, {"name": "South Hills Interfaith Movement", "state": "PA", "link": "http://shimcares.org/", "category": "Refugee Crisis", "geometry": [40.3284421, -80.02866209999999]}, {"name": "Pendleton Place", "state": "SC", "link": "http://www.pendletonplace.org/", "category": "Refugee Crisis", "geometry": [34.8445554, -82.4218288]}, {"name": "The Elephant Sanctuary", "state": "TN", "link": "http://www.elephants.com/", "category": "Refugee Crisis", "geometry": [35.5481644, -87.5514443]}, {"name": "RAICES", "state": "TX", "link": "https://www.raicestexas.org/", "category": "Refugee Crisis", "geometry": [29.4381605, -98.50321890000001]}, {"name": "Animal Welfare League of Arlington", "state": "VA", "link": "https://www.awla.org", "category": "Refugee Crisis", "geometry": [38.8432378, -77.0932289]}, {"name": "Vanessa Behan Crisis Nursery", "state": "WA", "link": "http://www.vanessabehan.org/", "category": "Refugee Crisis", "geometry": [47.656593, -117.3772551]}, {"name": "Chestnut Mountain Ranch", "state": "WV", "link": "https://cmrwv.org/", "category": "Refugee Crisis", "geometry": [39.5732295, -79.9123378]}, {"name": "Dane County Humane Society", "state": "WI", "link": "http://www.giveshelter.org/", "category": "Refugee Crisis", "geometry": [43.043175, -89.2923644]}]