[{"name": "Rodeheaver Boys Ranch", "state": "FL", "link": "http://www.rbr.org/", "category": "Disability", "geometry": [29.5404512, -81.7116896]}, {"name": "Chicago Legal Clinic", "state": "IL", "link": "http://www.clclaw.org/", "category": "Disability", "geometry": [41.7304152, -87.552358]}, {"name": "The Center for Courageous Kids", "state": "KY", "link": "http://www.courageouskids.org/", "category": "Disability", "geometry": [36.7731928, -86.2235244]}, {"name": "Jewish Family Service of Greater New Orleans", "state": "LA", "link": "http://www.jfsneworleans.org/", "category": "Disability", "geometry": [30.0137921, -90.156594]}, {"name": "Pine Tree Society", "state": "ME", "link": "http://www.pinetreesociety.org/", "category": "Disability", "geometry": [43.9144612, -69.8140009]}, {"name": "Jewish Federation of Somerset, Hunterdon & Warren Counties", "state": "NJ", "link": "http://www.jfedshaw.org", "category": "Disability", "geometry": [40.6124409, -74.63049]}, {"name": "Independent Catholic Foundation for the Diocese of Altoona-Johnstown", "state": "PA", "link": "http://independentcatholicfoundation.org/", "category": "Disability", "geometry": [40.4890279, -78.4129323]}, {"name": "Camp John Marc", "state": "TX", "link": "http://www.campjohnmarc.org/", "category": "Disability", "geometry": [32.8028128, -96.80382230000001]}, {"name": "SIGN Fracture Care International", "state": "WA", "link": "http://signfracturecare.org/", "category": "Disability", "geometry": [46.3381124, -119.2714142]}, {"name": "United Way of Baldwin County", "state": "AL", "link": "http://www.unitedway-bc.org/", "category": "Health", "geometry": [30.4128311, -87.6833453]}, {"name": "Alaska Conservation Foundation", "state": "AK", "link": "http://alaskaconservation.org/", "category": "Health", "geometry": [61.2138036, -149.907044]}, {"name": "Ronald McDonald House Charities of Southern Arizona", "state": "AZ", "link": "https://rmhctucson.org/", "category": "Health", "geometry": [32.2761738, -110.9401885]}, {"name": "Humane Society of Pulaski County", "state": "AR", "link": "http://www.warmhearts.org", "category": "Health", "geometry": [34.7116772, -92.43994359999999]}, {"name": "Breathe California of Los Angeles County", "state": "CA", "link": "http://www.breathela.org", "category": "Health", "geometry": [34.0622108, -118.3564049]}, {"name": "Can Do Multiple Sclerosis", "state": "CO", "link": "http://www.cando-ms.org", "category": "Health", "geometry": [39.635214, -106.5239441]}, {"name": "The Greenwich United Way", "state": "CT", "link": "http://www.greenwichunitedway.org", "category": "Health", "geometry": [41.0179263, -73.64525069999999]}, {"name": "The SEED Foundation", "state": "DC", "link": "http://www.seedfoundation.com/", "category": "Health", "geometry": [38.9058785, -77.0394804]}, {"name": "Judeo Christian Health Clinic", "state": "FL", "link": "http://www.judeochristianhealthclinic.org/", "category": "Health", "geometry": [27.9769685, -82.4942052]}, {"name": "United Way of the CSRA", "state": "GA", "link": "http://www.uwcsra.org/", "category": "Health", "geometry": [33.4846823, -81.9930856]}, {"name": "Hawaiian Humane Society", "state": "HI", "link": "http://www.hawaiianhumane.org", "category": "Health", "geometry": [21.2905058, -157.8182996]}, {"name": "United Way of Treasure Valley", "state": "ID", "link": "http://www.unitedwaytv.org/", "category": "Health", "geometry": [43.5737709, -116.2136124]}, {"name": "Respiratory Health Association", "state": "IL", "link": "http://www.resphealth.org/", "category": "Health", "geometry": [41.8831677, -87.6635845]}, {"name": "United Way of Madison County, Indiana", "state": "IN", "link": "http://www.unitedwaymadisonco.org/", "category": "Health", "geometry": [40.1053196, -85.6802541]}, {"name": "United Way of Siouxland", "state": "IA", "link": "http://www.unitedwaysiouxland.com/", "category": "Health", "geometry": [42.4978446, -96.3892937]}, {"name": "Special Olympics Kansas", "state": "KS", "link": "http://www.ksso.org", "category": "Health", "geometry": [39.0334899, -94.6666726]}, {"name": "Kentucky Coalition", "state": "KY", "link": "http://www.kftc.org/KCDonation", "category": "Health", "geometry": [37.0824781, -84.13269179999999]}, {"name": "United Way of Northwest Louisiana", "state": "LA", "link": "http://www.unitedwaynwla.org/", "category": "Health", "geometry": [32.4991767, -93.7475654]}, {"name": "Vision New England", "state": "ME", "link": "http://www.visionnewengland.org/", "category": "Health", "geometry": [43.4135767, -70.75164749999999]}, {"name": "The Children's Inn at NIH", "state": "MD", "link": "http://www.childrensinn.org/", "category": "Health", "geometry": [39.0045991, -77.10527739999999]}, {"name": "Jewish Family Service of Metrowest", "state": "MA", "link": "http://jfsmw.org/", "category": "Health", "geometry": [42.2894542, -71.4279419]}, {"name": "Ecology Center", "state": "MI", "link": "http://www.ecocenter.org", "category": "Health", "geometry": [42.279577, -83.74446770000002]}, {"name": "United Way of Washington County East", "state": "MN", "link": "http://www.uwwce.org/", "category": "Health", "geometry": [45.0396663, -92.83075079999999]}, {"name": "Mississippi Children's Museum", "state": "MS", "link": "http://mschildrensmuseum.org/", "category": "Health", "geometry": [32.3287444, -90.15726939999999]}, {"name": "Thrive St. Louis", "state": "MO", "link": "http://thrivealivestl.org/", "category": "Health", "geometry": [38.6415501, -90.251635]}, {"name": "United Way of the Lewis and Clark Area", "state": "MT", "link": "http://www.unitedwaylca.org/", "category": "Health", "geometry": [46.597955, -112.02963]}, {"name": "United Way of Lincoln and Lancaster County", "state": "NE", "link": "http://www.unitedwaylincoln.org/", "category": "Health", "geometry": [40.8116264, -96.7023897]}, {"name": "Ronald McDonald House Charities of Greater Las Vegas", "state": "NV", "link": "http://www.rmhlv.com/", "category": "Health", "geometry": [36.1464569, -115.2142502]}, {"name": "Girls Inc. of New Hampshire", "state": "NH", "link": "http://www.girlsincnewhampshire.org/", "category": "Health", "geometry": [42.7506334, -71.4524776]}, {"name": "United Way of Essex and West Hudson", "state": "NJ", "link": "http://www.uwewh.org/", "category": "Health", "geometry": [40.7382754, -74.1689062]}, {"name": "Animal Humane New Mexico", "state": "NM", "link": "http://www.animalhumanenm.org", "category": "Health", "geometry": [35.0672294, -106.5535733]}, {"name": "Children's Aid", "state": "NY", "link": "https://www.childrensaidnyc.org/", "category": "Health", "geometry": [40.75224860000001, -73.9729531]}, {"name": "United Way of Greater Greensboro", "state": "NC", "link": "http://www.unitedwaygso.org/", "category": "Health", "geometry": [36.0936183, -79.77937089999999]}, {"name": "United Way of Greater Cleveland", "state": "OH", "link": "http://www.unitedwaycleveland.org", "category": "Health", "geometry": [41.5012406, -81.6823015]}, {"name": "Children's Hospital Foundation", "state": "OK", "link": "http://www.chfKids.com", "category": "Health", "geometry": [35.4766576, -97.50382820000002]}, {"name": "Volunteers In Medicine Clinic, Oregon", "state": "OR", "link": "http://www.vim-clinic.org", "category": "Health", "geometry": [44.0646958, -122.9925139]}, {"name": "United Way of Chester County", "state": "PA", "link": "http://www.liveunitedchestercounty.org/", "category": "Health", "geometry": [40.0230727, -75.6533116]}, {"name": "Volunteers in Medicine Clinic Hilton Head Island", "state": "SC", "link": "http://www.vimclinic.org", "category": "Health", "geometry": [32.2176996, -80.7065725]}, {"name": "United Way of Blount County", "state": "TN", "link": "http://www.liveunitedblount.org", "category": "Health", "geometry": [35.77199969999999, -83.9577267]}, {"name": "Bo's Place", "state": "TX", "link": "http://www.bosplace.org/", "category": "Health", "geometry": [29.672954, -95.4251711]}, {"name": "Voices for Utah Children", "state": "UT", "link": "http://www.utahchildren.org/", "category": "Health", "geometry": [40.7696952, -111.8693119]}, {"name": "Southern Environmental Law Center", "state": "VA", "link": "http://www.southernenvironment.org/", "category": "Health", "geometry": [38.0307918, -78.4803003]}, {"name": "United Way of Whatcom County", "state": "WA", "link": "http://www.unitedwaywhatcom.org", "category": "Health", "geometry": [48.7517891, -122.4755884]}, {"name": "Rawhide", "state": "WI", "link": "http://www.rawhide.org", "category": "Health", "geometry": [44.3098219, -88.853787]}, {"name": "Downtown Rescue Mission", "state": "AL", "link": "http://www.downtownrescuemission.org", "category": "Voting Rights", "geometry": [34.7397698, -86.6405078]}, {"name": "Christian Family Care", "state": "AZ", "link": "http://www.cfcare.org/", "category": "Voting Rights", "geometry": [33.4897472, -112.0828012]}, {"name": "Union Rescue Mission, Little Rock", "state": "AR", "link": "http://www.urmissionlr.org/", "category": "Voting Rights", "geometry": [34.7196682, -92.258712]}, {"name": "Children of the Night", "state": "CA", "link": "https://www.childrenofthenight.org", "category": "Voting Rights", "geometry": [34.132701, -118.354121]}, {"name": "Bright by Text", "state": "CO", "link": "http://brightbytext.org/", "category": "Voting Rights", "geometry": [39.7392358, -104.990251]}, {"name": "The Hole in the Wall Gang Fund", "state": "CT", "link": "http://www.holeinthewallgang.org", "category": "Voting Rights", "geometry": [41.2976754, -72.9122326]}, {"name": "Sunday Breakfast Mission", "state": "DE", "link": "http://www.sundaybreakfastmission.org/", "category": "Voting Rights", "geometry": [39.7368206, -75.5480896]}, {"name": "D.C. Bar Pro Bono Center", "state": "DC", "link": "http://www.dcbar.org/pro-bono/index.cfm", "category": "Voting Rights", "geometry": [38.9015139, -77.01598609999999]}, {"name": "Children in Crisis", "state": "FL", "link": "http://www.childrenincrisisfl.org/", "category": "Voting Rights", "geometry": [30.4479255, -86.64737699999999]}, {"name": "Southern Center for Human Rights", "state": "GA", "link": "http://www.schr.org", "category": "Voting Rights", "geometry": [33.7561442, -84.39084369999999]}, {"name": "Chicago Lights", "state": "IL", "link": "http://www.chicagolights.org", "category": "Voting Rights", "geometry": [41.8987638, -87.62522589999999]}, {"name": "Lake Area United Way", "state": "IN", "link": "http://www.lauw.org/", "category": "Voting Rights", "geometry": [41.5509026, -87.4293883]}, {"name": "Food Bank of Siouxland", "state": "IA", "link": "http://foodbanksiouxland.wordpress.com/", "category": "Voting Rights", "geometry": [42.5025003, -96.3929297]}, {"name": "Salina Rescue Mission", "state": "KS", "link": "http://www.salinarescuemission.com", "category": "Voting Rights", "geometry": [38.786474, -97.633804]}, {"name": "Visually Impaired Preschool Services (VIPS)", "state": "KY", "link": "http://www.vips.org", "category": "Voting Rights", "geometry": [38.2003197, -85.68385599999999]}, {"name": "United Way of Northwest Louisiana", "state": "LA", "link": "http://www.unitedwaynwla.org/", "category": "Voting Rights", "geometry": [32.4991767, -93.7475654]}, {"name": "Immigrant Legal Advocacy Project", "state": "ME", "link": "http://www.ilapmaine.org", "category": "Voting Rights", "geometry": [43.6568173, -70.2603191]}, {"name": "Helping Up Mission", "state": "MD", "link": "http://www.helpingupmission.org/", "category": "Voting Rights", "geometry": [39.2904906, -76.6021198]}, {"name": "International OCD Foundation", "state": "MA", "link": "http://iocdf.org/", "category": "Voting Rights", "geometry": [42.3587826, -71.05962459999999]}, {"name": "Grace Centers of Hope", "state": "MI", "link": "http://www.gracecentersofhope.org", "category": "Voting Rights", "geometry": [42.6394955, -83.29109419999999]}, {"name": "Angel Foundation", "state": "MN", "link": "https://mnangel.org/", "category": "Voting Rights", "geometry": [44.8816505, -93.150125]}, {"name": "Fight Colorectal Cancer", "state": "MO", "link": "http://fightcolorectalcancer.org/", "category": "Voting Rights", "geometry": [37.2087536, -93.2929881]}, {"name": "United Way of Lincoln and Lancaster County", "state": "NE", "link": "http://www.unitedwaylincoln.org/", "category": "Voting Rights", "geometry": [40.8116264, -96.7023897]}, {"name": "Ronald McDonald House Charities of Greater Las Vegas", "state": "NV", "link": "http://www.rmhlv.com/", "category": "Voting Rights", "geometry": [36.1464569, -115.2142502]}, {"name": "New Hampshire Association for the Blind", "state": "NH", "link": "http://www.sightcenter.org/", "category": "Voting Rights", "geometry": [43.214996, -71.5466624]}, {"name": "Boy Scouts of America, Northern New Jersey Council", "state": "NJ", "link": "http://nnjbsa.org", "category": "Voting Rights", "geometry": [41.0138048, -74.26479119999999]}, {"name": "Animal Humane New Mexico", "state": "NM", "link": "http://www.animalhumanenm.org", "category": "Voting Rights", "geometry": [35.0672294, -106.5535733]}, {"name": "Hoving Home", "state": "NY", "link": "http://www.hovinghome.org", "category": "Voting Rights", "geometry": [41.387545, -73.930071]}, {"name": "North Carolina Zoological Society", "state": "NC", "link": "http://www.nczoo.com", "category": "Voting Rights", "geometry": [35.634204, -79.782461]}, {"name": "The New Path", "state": "OH", "link": "http://newpathserves.org", "category": "Voting Rights", "geometry": [39.9274671, -84.19725129999999]}, {"name": "Little Light House", "state": "OK", "link": "http://www.littlelighthouse.org/", "category": "Voting Rights", "geometry": [36.1103674, -95.9205815]}, {"name": "Oregon Lions Sight & Hearing Foundation", "state": "OR", "link": "http://www.olshf.org/", "category": "Voting Rights", "geometry": [45.5301268, -122.6963914]}, {"name": "Animal Friends", "state": "PA", "link": "http://www.thinkingoutsidethecage.org/", "category": "Voting Rights", "geometry": [40.4397841, -79.8846286]}, {"name": "Center for Developmental Services", "state": "SC", "link": "http://www.cdservices.org/", "category": "Voting Rights", "geometry": [34.8530307, -82.4020472]}, {"name": "Crazy Horse Memorial Foundation", "state": "SD", "link": "https://crazyhorsememorial.org/", "category": "Voting Rights", "geometry": [43.8280823, -103.6316836]}, {"name": "J103", "state": "TN", "link": "http://www.j103.com/", "category": "Voting Rights", "geometry": [35.0482318, -85.16579899999999]}, {"name": "Ronald McDonald House of Dallas", "state": "TX", "link": "http://www.rmhdallas.org/", "category": "Voting Rights", "geometry": [32.8105081, -96.8301199]}, {"name": "The Christmas Box International", "state": "UT", "link": "https://www.thechristmasboxhouse.org", "category": "Voting Rights", "geometry": [40.6913364, -111.8943215]}, {"name": "Museum of the Shenandoah Valley", "state": "VA", "link": "https://www.themsv.org/", "category": "Voting Rights", "geometry": [39.1853793, -78.1798668]}, {"name": "Purrfect Pals", "state": "WA", "link": "http://purrfectpals.org", "category": "Voting Rights", "geometry": [48.1422389, -122.228005]}, {"name": "Ronald McDonald House Charities of Eastern Wisconsin", "state": "WI", "link": "http://rmhc-easternwi.org", "category": "Voting Rights", "geometry": [43.0458737, -88.02489369999999]}, {"name": "United Way of Natrona County", "state": "WY", "link": "http://www.unitedwaync.com/", "category": "Voting Rights", "geometry": [42.8533611, -106.3354798]}]